stop_id,stop_name,stop_lat,stop_lon,stop_url,stop_timezone
ABE,Aberdeen Amtrak,39.508447,-76.163260,http://www.amtrak.com/servlet/ContentServer?c=am2Station&pagename=am%2Fam2Station%2FStation_Page&p=1237405732508&cid=1229726269477,America/New_York
ABQ,Albuquerque Alvarado Transportation Center,35.083457,-106.648024,http://www.amtrak.com/servlet/ContentServer?c=am2Station&pagename=am%2Fam2Station%2FStation_Page&p=1237405732508&cid=1229726270103,America/Denver
ACA,Antioch Amtrak,38.017700,-121.816024,http://www.amtrak.com/servlet/ContentServer?c=am2Station&pagename=am%2Fam2Station%2FStation_Page&p=1237405732508&cid=1229726269170,America/Los_Angeles
ADM,Ardmore Amtrak,34.172465,-97.125510,http://www.amtrak.com/servlet/ContentServer?c=am2Station&pagename=am%2Fam2Station%2FStation_Page&p=1237405732508&cid=1229726270692,America/Chicago
AKY,Ashland Amtrak,38.480875,-82.639603,http://www.amtrak.com/servlet/ContentServer?c=am2Station&pagename=am%2Fam2Station%2FStation_Page&p=1237405732508&cid=1229726267909,America/New_York
ALB,Albany-Rensselaer Amtrak,42.641029,-73.741147,http://www.amtrak.com/servlet/ContentServer?c=am2Station&pagename=am%2Fam2Station%2FStation_Page&p=1237405732508&cid=1229726268101,America/New_York
ALC,Alliance Amtrak,40.921275,-81.092904,http://www.amtrak.com/servlet/ContentServer?c=am2Station&pagename=am%2Fam2Station%2FStation_Page&p=1237405732508&cid=1229726268833,America/New_York
ALD,Alderson Amtrak,37.724277,-80.644856,http://www.amtrak.com/servlet/ContentServer?c=am2Station&pagename=am%2Fam2Station%2FStation_Page&p=1237405732508&cid=1229726270914,America/New_York
ALI,Albion Amtrak,42.247196,-84.755814,http://www.amtrak.com/servlet/ContentServer?c=am2Station&pagename=am%2Fam2Station%2FStation_Page&p=1237405732508&cid=1229726268145,America/New_York
ALN,Alton Amtrak,38.904723,-90.136276,http://www.amtrak.com/servlet/ContentServer?c=am2Station&pagename=am%2Fam2Station%2FStation_Page&p=1237405732508&cid=1229726270489,America/Chicago
ALP,Alpine Amtrak,30.357302,-103.661513,http://www.amtrak.com/servlet/ContentServer?c=am2Station&pagename=am%2Fam2Station%2FStation_Page&p=1237405732508&cid=1229726268617,America/Chicago
ALT,Altoona Amtrak,40.514475,-78.401620,http://www.amtrak.com/servlet/ContentServer?c=am2Station&pagename=am%2Fam2Station%2FStation_Page&p=1237405732508&cid=1229726269166,America/New_York
ALX,Alexandria Amtrak,38.806503,-77.062330,http://www.amtrak.com/servlet/ContentServer?c=am2Station&pagename=am%2Fam2Station%2FStation_Page&p=1237405732508&cid=1229726268964,America/New_York
ALY,Albany Amtrak,44.630464,-123.102774,http://www.amtrak.com/servlet/ContentServer?c=am2Station&pagename=am%2Fam2Station%2FStation_Page&p=1237405732508&cid=1229726269832,America/Los_Angeles
AMM,Amherst Amtrak,42.375315,-72.511567,http://www.amtrak.com/servlet/ContentServer?c=am2Station&pagename=am%2Fam2Station%2FStation_Page&p=1237405732508&cid=1229726268589,America/New_York
AMS,Amsterdam Amtrak,42.953719,-74.219500,http://www.amtrak.com/servlet/ContentServer?c=am2Station&pagename=am%2Fam2Station%2FStation_Page&p=1237405732508&cid=1229726270883,America/New_York
ANA,Anaheim Amtrak,33.803507,-117.882263,http://www.amtrak.com/servlet/ContentServer?c=am2Station&pagename=am%2Fam2Station%2FStation_Page&p=1237405732508&cid=1229726269040,America/Los_Angeles
ARB,Ann Arbor Amtrak,42.287692,-83.743154,http://www.amtrak.com/servlet/ContentServer?c=am2Station&pagename=am%2Fam2Station%2FStation_Page&p=1237405732508&cid=1229726270485,America/New_York
ARD,Ardmore Amtrak,40.008278,-75.290399,http://www.amtrak.com/servlet/ContentServer?c=am2Station&pagename=am%2Fam2Station%2FStation_Page&p=1237405732508&cid=1229726268613,America/New_York
ARK,Arkadelphia Amtrak,34.113919,-93.053284,http://www.amtrak.com/servlet/ContentServer?c=am2Station&pagename=am%2Fam2Station%2FStation_Page&p=1237405732508&cid=1229726269516,America/Chicago
ARN,Auburn Amtrak,38.903638,-121.083187,http://www.amtrak.com/servlet/ContentServer?c=am2Station&pagename=am%2Fam2Station%2FStation_Page&p=1237405732508&cid=1229726270663,America/Los_Angeles
ASD,Ashland Amtrak,37.759596,-77.481304,http://www.amtrak.com/servlet/ContentServer?c=am2Station&pagename=am%2Fam2Station%2FStation_Page&p=1237405732508&cid=1229726268346,America/New_York
AST,Aldershot Amtrak,43.313413,-79.855712,http://www.amtrak.com/servlet/ContentServer?c=am2Station&pagename=am%2Fam2Station%2FStation_Page&p=1237405732508&cid=1229726270314,America/New_York
ATL,Atlanta,33.799445,-84.392477,http://www.amtrak.com/servlet/ContentServer?c=am2Station&pagename=am%2Fam2Station%2FStation_Page&p=1237405732508&cid=1229726269668,America/New_York
ATN,Anniston Amtrak,33.649112,-85.832145,http://www.amtrak.com/servlet/ContentServer?c=am2Station&pagename=am%2Fam2Station%2FStation_Page&p=1237405732508&cid=1229726268167,America/Chicago
AUS,Austin Amtrak,30.269449,-97.756940,http://www.amtrak.com/servlet/ContentServer?c=am2Station&pagename=am%2Fam2Station%2FStation_Page&p=1237405732508&cid=1229726270397,America/Chicago
BAL,Baltimore Penn Station,39.307302,-76.615688,http://www.amtrak.com/servlet/ContentServer?c=am2Station&pagename=am%2Fam2Station%2FStation_Page&p=1237405732508&cid=1229726270879,America/New_York
BAM,Bangor Amtrak,42.314519,-86.111646,http://www.amtrak.com/servlet/ContentServer?c=am2Station&pagename=am%2Fam2Station%2FStation_Page&p=1237405732508&cid=1229726268282,America/New_York
BAR,Barstow Amtrak,34.904820,-117.025435,http://www.amtrak.com/servlet/ContentServer?c=am2Station&pagename=am%2Fam2Station%2FStation_Page&p=1237405732508&cid=1229726268817,America/Los_Angeles
BBY,Boston Back Bay Station,42.347317,-71.075828,http://www.amtrak.com/servlet/ContentServer?c=am2Station&pagename=am%2Fam2Station%2FStation_Page&p=1237405732508&cid=1229726270007,America/New_York
BCV,Burke Centre Amtrak,38.797271,-77.298790,http://www.amtrak.com/servlet/ContentServer?c=am2Station&pagename=am%2Fam2Station%2FStation_Page&p=1237405732508&cid=1246042854846,America/New_York
BEL,Bellingham Amtrak,48.720263,-122.511255,http://www.amtrak.com/servlet/ContentServer?c=am2Station&pagename=am%2Fam2Station%2FStation_Page&p=1237405732508&cid=1229726269028,America/Los_Angeles
BEN,Benson Amtrak,31.968758,-110.296904,http://www.amtrak.com/servlet/ContentServer?c=am2Station&pagename=am%2Fam2Station%2FStation_Page&p=1237405732508&cid=1229726270458,America/Phoenix
BER,Berlin Amtrak,41.635595,-72.765274,http://www.amtrak.com/servlet/ContentServer?c=am2Station&pagename=am%2Fam2Station%2FStation_Page&p=1237405732508&cid=1229726270481,America/New_York
BFD,Bakersfield Amtrak,35.372140,-119.008210,http://www.amtrak.com/servlet/ContentServer?c=am2Station&pagename=am%2Fam2Station%2FStation_Page&p=1237405732508&cid=1229726270748,America/Los_Angeles
BFX,Buffalo Exchange Street Station,42.878449,-78.873748,http://www.amtrak.com/servlet/ContentServer?c=am2Station&pagename=am%2Fam2Station%2FStation_Page&p=1237405732508&cid=1229726270187,America/New_York
BHM,Birmingham Amtrak,33.512467,-86.807364,http://www.amtrak.com/servlet/ContentServer?c=am2Station&pagename=am%2Fam2Station%2FStation_Page&p=1237405732508&cid=1229726270206,America/Chicago
BKY,Berkeley Amtrak,37.867254,-122.300707,http://www.amtrak.com/servlet/ContentServer?c=am2Station&pagename=am%2Fam2Station%2FStation_Page&p=1237405732508&cid=1229726270736,America/Los_Angeles
BLF,Bellows Falls Amtrak,43.136540,-72.444597,http://www.amtrak.com/servlet/ContentServer?c=am2Station&pagename=am%2Fam2Station%2FStation_Page&p=1237405732508&cid=1229726267977,America/New_York
BMM,Birmingham Amtrak,42.545509,-83.194198,http://www.amtrak.com/servlet/ContentServer?c=am2Station&pagename=am%2Fam2Station%2FStation_Page&p=1237405732508&cid=1229726269876,America/New_York
BMT,Beaumont Amtrak,30.076458,-94.127367,http://www.amtrak.com/servlet/ContentServer?c=am2Station&pagename=am%2Fam2Station%2FStation_Page&p=1237405732508&cid=1229726268049,America/Chicago
BNC,Burlington Amtrak,36.094225,-79.434531,http://www.amtrak.com/servlet/ContentServer?c=am2Station&pagename=am%2Fam2Station%2FStation_Page&p=1237405732508&cid=1229726270023,America/New_York
BNG,Bingen-White Salmon Amtrak,45.715020,-121.468730,http://www.amtrak.com/servlet/ContentServer?c=am2Station&pagename=am%2Fam2Station%2FStation_Page&p=1237405732508&cid=1229726269405,America/Los_Angeles
BNL,Bloomington-Normal Amtrak,40.509010,-88.984306,http://www.amtrak.com/servlet/ContentServer?c=am2Station&pagename=am%2Fam2Station%2FStation_Page&p=1237405732508&cid=1229726270267,America/Chicago
BON,Boston North Station,42.366235,-71.061122,http://www.amtrak.com/servlet/ContentServer?c=am2Station&pagename=am%2Fam2Station%2FStation_Page&p=1237405732508&cid=1229726268837,America/New_York
BOS,Boston South Station,42.352311,-71.055304,http://www.amtrak.com/servlet/ContentServer?c=am2Station&pagename=am%2Fam2Station%2FStation_Page&p=1237405732508&cid=1229726268095,America/New_York
BRA,Brattleboro Amtrak,42.850849,-72.556497,http://www.amtrak.com/servlet/ContentServer?c=am2Station&pagename=am%2Fam2Station%2FStation_Page&p=1237405732508&cid=1229726269672,America/New_York
BRH,Brookhaven Amtrak,31.582961,-90.441070,http://www.amtrak.com/servlet/ContentServer?c=am2Station&pagename=am%2Fam2Station%2FStation_Page&p=1237405732508&cid=1229726268641,America/Chicago
BRK,Brunswick,43.911388,-69.965541,http://www.amtrak.com/servlet/ContentServer?pagename=am/AM_Snippet_C/IBLegacy&code=BRK,America/New_York
BRL,Burlington Amtrak,40.805788,-91.101951,http://www.amtrak.com/servlet/ContentServer?c=am2Station&pagename=am%2Fam2Station%2FStation_Page&p=1237405732508&cid=1229726268701,America/Chicago
BRO,Browning Amtrak,48.534067,-113.013151,http://www.amtrak.com/servlet/ContentServer?c=am2Station&pagename=am%2Fam2Station%2FStation_Page&p=1237405732508&cid=1229726268083,America/Denver
BRP,Bridgeport Amtrak,41.178006,-73.187539,http://www.amtrak.com/servlet/ContentServer?c=am2Station&pagename=am%2Fam2Station%2FStation_Page&p=1237405732508&cid=1229726268758,America/New_York
BTL,Battle Creek Amtrak,42.318453,-85.187825,http://www.amtrak.com/servlet/ContentServer?c=am2Station&pagename=am%2Fam2Station%2FStation_Page&p=1237405732508&cid=1229726269433,America/New_York
BUF,Buffalo Depew Station,42.907017,-78.726584,http://www.amtrak.com/servlet/ContentServer?c=am2Station&pagename=am%2Fam2Station%2FStation_Page&p=1237405732508&cid=1229726269600,America/New_York
BUR,Burbank Bob Hope Airport Amtrak,34.193072,-118.353767,http://www.amtrak.com/servlet/ContentServer?c=am2Station&pagename=am%2Fam2Station%2FStation_Page&p=1237405732508&cid=1229726270929,America/Los_Angeles
BWI,BWI Marshall Airport Amtrak,39.192362,-76.694300,http://www.amtrak.com/servlet/ContentServer?c=am2Station&pagename=am%2Fam2Station%2FStation_Page&p=1237405732508&cid=1229726269334,America/New_York
BYN,Bryan Amtrak,41.480319,-84.551799,http://www.amtrak.com/servlet/ContentServer?c=am2Station&pagename=am%2Fam2Station%2FStation_Page&p=1237405732508&cid=1229726268286,America/New_York
CAM,Camden Amtrak,34.248157,-80.625190,http://www.amtrak.com/servlet/ContentServer?c=am2Station&pagename=am%2Fam2Station%2FStation_Page&p=1237405732508&cid=1229726270521,America/New_York
CBN,Canadian Border New York,43.109235,-79.058357,http://www.amtrak.com/servlet/ContentServer?pagename=am/AM_Snippet_C/IBLegacy&code=CBN,America/New_York
CBR,Cleburne Amtrak,32.349743,-97.382333,http://www.amtrak.com/servlet/ContentServer?c=am2Station&pagename=am%2Fam2Station%2FStation_Page&p=1237405732508&cid=1229726268869,America/Chicago
CBS,Columbus Amtrak,43.340611,-89.012609,http://www.amtrak.com/servlet/ContentServer?c=am2Station&pagename=am%2Fam2Station%2FStation_Page&p=1237405732508&cid=1229726268151,America/Chicago
CBV,Carlsbad,33.160989,-117.350730,http://www.amtrak.com/servlet/ContentServer?pagename=am/AM_Snippet_C/IBLegacy&code=CBV,America/Los_Angeles
CDL,Carbondale Amtrak,37.724235,-89.216628,http://www.amtrak.com/servlet/ContentServer?c=am2Station&pagename=am%2Fam2Station%2FStation_Page&p=1237405732508&cid=1229726269580,America/Chicago
CEN,Centralia Amtrak,38.527531,-89.136118,http://www.amtrak.com/servlet/ContentServer?c=am2Station&pagename=am%2Fam2Station%2FStation_Page&p=1237405732508&cid=1229726269262,America/Chicago
CHI,Chicago Union Station,41.878684,-87.639443,http://www.amtrak.com/servlet/ContentServer?c=am2Station&pagename=am%2Fam2Station%2FStation_Page&p=1237405732508&cid=1237405734838,America/Chicago
CHM,Champaign-Urbana Amtrak,40.115843,-88.241366,http://www.amtrak.com/servlet/ContentServer?c=am2Station&pagename=am%2Fam2Station%2FStation_Page&p=1237405732508&cid=1229726268476,America/Chicago
CHS,Charleston Amtrak,32.874866,-79.998002,http://www.amtrak.com/servlet/ContentServer?c=am2Station&pagename=am%2Fam2Station%2FStation_Page&p=1237405732508&cid=1229726270175,America/New_York
CHW,Charleston Amtrak,38.346368,-81.638494,http://www.amtrak.com/servlet/ContentServer?c=am2Station&pagename=am%2Fam2Station%2FStation_Page&p=1237405732508&cid=1229726270409,America/New_York
CIC,Chico Amtrak,39.723259,-121.845861,http://www.amtrak.com/servlet/ContentServer?c=am2Station&pagename=am%2Fam2Station%2FStation_Page&p=1237405732508&cid=1229726268007,America/Los_Angeles
CIN,Cincinnati Union Terminal,39.109927,-84.537061,http://www.amtrak.com/servlet/ContentServer?c=am2Station&pagename=am%2Fam2Station%2FStation_Page&p=1237405732508&cid=1229726268813,America/New_York
CLA,Claremont Amtrak,43.368330,-72.377644,http://www.amtrak.com/servlet/ContentServer?c=am2Station&pagename=am%2Fam2Station%2FStation_Page&p=1237405732508&cid=1229726268789,America/New_York
CLB,Columbia Amtrak,33.994297,-81.040490,http://www.amtrak.com/servlet/ContentServer?c=am2Station&pagename=am%2Fam2Station%2FStation_Page&p=1237405732508&cid=1229726267945,America/New_York
CLE,Cleveland Amtrak,41.505787,-81.696172,http://www.amtrak.com/servlet/ContentServer?c=am2Station&pagename=am%2Fam2Station%2FStation_Page&p=1237405732508&cid=1229726268968,America/New_York
CLF,Clifton Forge Amtrak,37.814521,-79.827363,http://www.amtrak.com/servlet/ContentServer?c=am2Station&pagename=am%2Fam2Station%2FStation_Page&p=1237405732508&cid=1229726268390,America/New_York
CLP,Culpeper Amtrak,38.472360,-77.993421,http://www.amtrak.com/servlet/ContentServer?c=am2Station&pagename=am%2Fam2Station%2FStation_Page&p=1237405732508&cid=1229726267829,America/New_York
CLT,Charlotte Amtrak,35.241403,-80.822812,http://www.amtrak.com/servlet/ContentServer?c=am2Station&pagename=am%2Fam2Station%2FStation_Page&p=1237405732508&cid=1229726269186,America/New_York
CML,Camarillo Amtrak,34.215933,-119.034114,http://www.amtrak.com/servlet/ContentServer?c=am2Station&pagename=am%2Fam2Station%2FStation_Page&p=1237405732508&cid=1229726269004,America/Los_Angeles
CMO,Chemult Amtrak,43.216784,-121.781594,http://www.amtrak.com/servlet/ContentServer?c=am2Station&pagename=am%2Fam2Station%2FStation_Page&p=1237405732508&cid=1229726268298,America/Los_Angeles
CNV,Castleton Amtrak,43.613382,-73.171337,http://www.amtrak.com/servlet/ContentServer?c=am2Station&pagename=am%2Fam2Station%2FStation_Page&p=1237405732508&cid=1246042597093,America/New_York
COC,Corcoran Amtrak,36.098516,-119.557050,http://www.amtrak.com/servlet/ContentServer?c=am2Station&pagename=am%2Fam2Station%2FStation_Page&p=1237405732508&cid=1229726269918,America/Los_Angeles
COI,Connersville Amtrak,39.645969,-85.133380,http://www.amtrak.com/servlet/ContentServer?c=am2Station&pagename=am%2Fam2Station%2FStation_Page&p=1237405732508&cid=1229726270675,America/New_York
COT,Coatesville Amtrak,39.985688,-75.820929,http://www.amtrak.com/servlet/ContentServer?c=am2Station&pagename=am%2Fam2Station%2FStation_Page&p=1237405732508&cid=1229726269840,America/New_York
COV,Connellsville Amtrak,40.020282,-79.592813,http://www.amtrak.com/servlet/ContentServer?c=am2Station&pagename=am%2Fam2Station%2FStation_Page&p=1237405732508&cid=1229726268685,America/New_York
COX,Colfax Amtrak,39.098874,-120.952913,http://www.amtrak.com/servlet/ContentServer?c=am2Station&pagename=am%2Fam2Station%2FStation_Page&p=1237405732508&cid=1229726270554,America/Los_Angeles
CPN,Carpinteria Amtrak,34.396780,-119.522975,http://www.amtrak.com/servlet/ContentServer?c=am2Station&pagename=am%2Fam2Station%2FStation_Page&p=1237405732508&cid=1229726269064,America/Los_Angeles
CRF,Crawfordsville Amtrak,40.044705,-86.899187,http://www.amtrak.com/servlet/ContentServer?c=am2Station&pagename=am%2Fam2Station%2FStation_Page&p=1237405732508&cid=1229726270322,America/New_York
CRN,Creston Amtrak,41.056920,-94.361617,http://www.amtrak.com/servlet/ContentServer?c=am2Station&pagename=am%2Fam2Station%2FStation_Page&p=1237405732508&cid=1229726270258,America/Chicago
CRT,Croton-Harmon Amtrak,41.189903,-73.882394,http://www.amtrak.com/servlet/ContentServer?c=am2Station&pagename=am%2Fam2Station%2FStation_Page&p=1237405732508&cid=1229726269775,America/New_York
CRV,Carlinville Amtrak,39.279295,-89.889276,http://www.amtrak.com/servlet/ContentServer?c=am2Station&pagename=am%2Fam2Station%2FStation_Page&p=1237405732508&cid=1229726268133,America/Chicago
CSN,Clemson Amtrak,34.691115,-82.832501,http://www.amtrak.com/servlet/ContentServer?c=am2Station&pagename=am%2Fam2Station%2FStation_Page&p=1237405732508&cid=1229726268354,America/New_York
CTL,Centralia Amtrak,46.717470,-122.953062,http://www.amtrak.com/servlet/ContentServer?c=am2Station&pagename=am%2Fam2Station%2FStation_Page&p=1237405732508&cid=1229726269931,America/Los_Angeles
CUM,Cumberland Amtrak,39.650628,-78.758000,http://www.amtrak.com/servlet/ContentServer?c=am2Station&pagename=am%2Fam2Station%2FStation_Page&p=1237405732508&cid=1229726268350,America/New_York
CUT,Cut Bank Amtrak,48.638364,-112.331584,http://www.amtrak.com/servlet/ContentServer?c=am2Station&pagename=am%2Fam2Station%2FStation_Page&p=1237405732508&cid=1229726267929,America/Denver
CVS,Charlottesville Amtrak,38.031484,-78.491684,http://www.amtrak.com/servlet/ContentServer?c=am2Station&pagename=am%2Fam2Station%2FStation_Page&p=1237405732508&cid=1229726269679,America/New_York
CWH,Cornwells Heights Amtrak,40.071663,-74.952187,http://www.amtrak.com/servlet/ContentServer?c=am2Station&pagename=am%2Fam2Station%2FStation_Page&p=1237405732508&cid=1229726268746,America/New_York
CWT,Chatsworth Amtrak,34.253205,-118.599417,http://www.amtrak.com/servlet/ContentServer?c=am2Station&pagename=am%2Fam2Station%2FStation_Page&p=1237405732508&cid=1229726268137,America/Los_Angeles
CYN,Cary Amtrak,35.788294,-78.782246,http://www.amtrak.com/servlet/ContentServer?c=am2Station&pagename=am%2Fam2Station%2FStation_Page&p=1237405732508&cid=1229726270059,America/New_York
DAL,Dallas Union Station,32.776094,-96.807235,http://www.amtrak.com/servlet/ContentServer?c=am2Station&pagename=am%2Fam2Station%2FStation_Page&p=1237405732508&cid=1229726269763,America/Chicago
DAN,Danville Amtrak,36.584090,-79.383968,http://www.amtrak.com/servlet/ContentServer?c=am2Station&pagename=am%2Fam2Station%2FStation_Page&p=1237405732508&cid=1229726268597,America/New_York
DAV,Davis Amtrak,38.543562,-121.737707,http://www.amtrak.com/servlet/ContentServer?c=am2Station&pagename=am%2Fam2Station%2FStation_Page&p=1237405732508&cid=1229726270261,America/Los_Angeles
DDG,Dodge City Amtrak,37.752306,-100.016961,http://www.amtrak.com/servlet/ContentServer?c=am2Station&pagename=am%2Fam2Station%2FStation_Page&p=1237405732508&cid=1229726270582,America/Chicago
DEM,Deming Amtrak,32.271770,-107.754346,http://www.amtrak.com/servlet/ContentServer?c=am2Station&pagename=am%2Fam2Station%2FStation_Page&p=1237405732508&cid=1229726269707,America/Denver
DEN,Denver Union Station,39.752959,-104.999929,http://www.amtrak.com/servlet/ContentServer?c=am2Station&pagename=am%2Fam2Station%2FStation_Page&p=1237405732508&cid=1229726268988,America/Denver
DER,Dearborn Amtrak,42.312406,-83.198735,http://www.amtrak.com/servlet/ContentServer?c=am2Station&pagename=am%2Fam2Station%2FStation_Page&p=1237405732508&cid=1229726269943,America/New_York
DET,Detroit Amtrak,42.368097,-83.072397,http://www.amtrak.com/servlet/ContentServer?c=am2Station&pagename=am%2Fam2Station%2FStation_Page&p=1237405732508&cid=1229726270271,America/New_York
DFB,Deerfield Beach Amtrak,26.317069,-80.122147,http://www.amtrak.com/servlet/ContentServer?c=am2Station&pagename=am%2Fam2Station%2FStation_Page&p=1237405732508&cid=1229726269469,America/New_York
DHM,Durham Amtrak,43.139328,-70.936013,http://www.amtrak.com/servlet/ContentServer?c=am2Station&pagename=am%2Fam2Station%2FStation_Page&p=1237405732508&cid=1229726270556,America/New_York
DIL,Dillon Amtrak,34.417647,-79.372301,http://www.amtrak.com/servlet/ContentServer?c=am2Station&pagename=am%2Fam2Station%2FStation_Page&p=1237405732508&cid=1229726269233,America/New_York
DLB,Delray Beach Amtrak,26.454021,-80.091154,http://www.amtrak.com/servlet/ContentServer?c=am2Station&pagename=am%2Fam2Station%2FStation_Page&p=1237405732508&cid=1229726267871,America/New_York
DLD,DeLand Amtrak,29.017849,-81.352477,http://www.amtrak.com/servlet/ContentServer?c=am2Station&pagename=am%2Fam2Station%2FStation_Page&p=1237405732508&cid=1229726269401,America/New_York
DLK,Detroit Lakes Amtrak,46.819692,-95.845998,http://www.amtrak.com/servlet/ContentServer?c=am2Station&pagename=am%2Fam2Station%2FStation_Page&p=1237405732508&cid=1229726270218,America/Chicago
DNC,Durham Amtrak,35.997240,-78.907129,http://www.amtrak.com/servlet/ContentServer?c=am2Station&pagename=am%2Fam2Station%2FStation_Page&p=1237405732508&cid=1229726269612,America/New_York
DNK,Denmark Amtrak,33.326184,-81.143635,http://www.amtrak.com/servlet/ContentServer?c=am2Station&pagename=am%2Fam2Station%2FStation_Page&p=1237405732508&cid=1229726269951,America/New_York
DOA,Dowagiac Amtrak,41.980941,-86.109041,http://www.amtrak.com/servlet/ContentServer?c=am2Station&pagename=am%2Fam2Station%2FStation_Page&p=1237405732508&cid=1229726269987,America/New_York
DOV,Dover Amtrak,43.197968,-70.878361,http://www.amtrak.com/servlet/ContentServer?c=am2Station&pagename=am%2Fam2Station%2FStation_Page&p=1237405732508&cid=1229726268452,America/New_York
DOW,Downingtown Amtrak,40.002193,-75.710775,http://www.amtrak.com/servlet/ContentServer?c=am2Station&pagename=am%2Fam2Station%2FStation_Page&p=1237405732508&cid=1229726267886,America/New_York
DQN,Du Quoin Amtrak,38.012328,-89.240254,http://www.amtrak.com/servlet/ContentServer?c=am2Station&pagename=am%2Fam2Station%2FStation_Page&p=1237405732508&cid=1229726269193,America/Chicago
DRD,Durand Amtrak,42.909495,-83.982320,http://www.amtrak.com/servlet/ContentServer?c=am2Station&pagename=am%2Fam2Station%2FStation_Page&p=1237405732508&cid=1229726268984,America/New_York
DRT,Del Rio Amtrak,29.362202,-100.902662,http://www.amtrak.com/servlet/ContentServer?c=am2Station&pagename=am%2Fam2Station%2FStation_Page&p=1237405732508&cid=1229726268125,America/Chicago
DUN,Dunsmuir Amtrak,41.211127,-122.270587,http://www.amtrak.com/servlet/ContentServer?c=am2Station&pagename=am%2Fam2Station%2FStation_Page&p=1237405732508&cid=1229726270792,America/Los_Angeles
DVL,Devils Lake Amtrak,48.110468,-98.861372,http://www.amtrak.com/servlet/ContentServer?c=am2Station&pagename=am%2Fam2Station%2FStation_Page&p=1237405732508&cid=1229726270847,America/Chicago
DWT,Dwight Amtrak,41.092981,-88.427884,http://www.amtrak.com/servlet/ContentServer?c=am2Station&pagename=am%2Fam2Station%2FStation_Page&p=1237405732508&cid=1229726270953,America/Chicago
DYE,Dyer Amtrak,41.515413,-87.518076,http://www.amtrak.com/servlet/ContentServer?c=am2Station&pagename=am%2Fam2Station%2FStation_Page&p=1237405732508&cid=1229726267999,America/Chicago
EDM,Edmonds Amtrak,47.811081,-122.384141,http://www.amtrak.com/servlet/ContentServer?c=am2Station&pagename=am%2Fam2Station%2FStation_Page&p=1237405732508&cid=1229726270909,America/Los_Angeles
EFG,Effingham Amtrak,39.117059,-88.547110,http://www.amtrak.com/servlet/ContentServer?c=am2Station&pagename=am%2Fam2Station%2FStation_Page&p=1237405732508&cid=1229726269900,America/Chicago
EKH,Elkhart Amtrak,41.680748,-85.971848,http://www.amtrak.com/servlet/ContentServer?c=am2Station&pagename=am%2Fam2Station%2FStation_Page&p=1237405732508&cid=1229726270119,America/New_York
ELK,Elko Amtrak,40.836483,-115.750530,http://www.amtrak.com/servlet/ContentServer?c=am2Station&pagename=am%2Fam2Station%2FStation_Page&p=1237405732508&cid=1229726267973,America/Los_Angeles
ELP,El Paso Union Depot,31.757346,-106.495644,http://www.amtrak.com/servlet/ContentServer?c=am2Station&pagename=am%2Fam2Station%2FStation_Page&p=1237405732508&cid=1229726267937,America/Denver
ELT,Elizabethtown Amtrak,40.147028,-76.612234,http://www.amtrak.com/servlet/ContentServer?c=am2Station&pagename=am%2Fam2Station%2FStation_Page&p=1237405732508&cid=1229726268033,America/New_York
ELY,Elyria Amtrak,41.370033,-82.096685,http://www.amtrak.com/servlet/ContentServer?c=am2Station&pagename=am%2Fam2Station%2FStation_Page&p=1237405732508&cid=1229726268262,America/New_York
EMY,Emeryville Amtrak,37.840474,-122.291615,http://www.amtrak.com/servlet/ContentServer?c=am2Station&pagename=am%2Fam2Station%2FStation_Page&p=1237405732508&cid=1229726269959,America/Los_Angeles
ENC,Encinitas,33.047109,-117.293204,http://www.amtrak.com/servlet/ContentServer?pagename=am/AM_Snippet_C/IBLegacy&code=ENC,America/Los_Angeles
EPH,Ephrata Amtrak,47.320948,-119.549267,http://www.amtrak.com/servlet/ContentServer?c=am2Station&pagename=am%2Fam2Station%2FStation_Page&p=1237405732508&cid=1229726267941,America/Los_Angeles
ERI,Erie Amtrak,42.120847,-80.082444,http://www.amtrak.com/servlet/ContentServer?c=am2Station&pagename=am%2Fam2Station%2FStation_Page&p=1237405732508&cid=1229726270063,America/New_York
ESM,Essex Amtrak,48.275543,-113.610942,http://www.amtrak.com/servlet/ContentServer?c=am2Station&pagename=am%2Fam2Station%2FStation_Page&p=1237405732508&cid=1229726268621,America/Denver
ESX,Essex Junction-Burlington Amtrak,44.492466,-73.110277,http://www.amtrak.com/servlet/ContentServer?c=am2Station&pagename=am%2Fam2Station%2FStation_Page&p=1237405732508&cid=1229726268169,America/New_York
EUG,Eugene Amtrak,44.055043,-123.092361,http://www.amtrak.com/servlet/ContentServer?c=am2Station&pagename=am%2Fam2Station%2FStation_Page&p=1237405732508&cid=1229726270091,America/Los_Angeles
EVR,Everett Amtrak,47.975401,-122.197858,http://www.amtrak.com/servlet/ContentServer?c=am2Station&pagename=am%2Fam2Station%2FStation_Page&p=1237405732508&cid=1229726270131,America/Los_Angeles
EWR,Newark Liberty Airport Amtrak,40.696618,-74.182290,http://www.amtrak.com/servlet/ContentServer?c=am2Station&pagename=am%2Fam2Station%2FStation_Page&p=1237405732508&cid=1229726269979,America/New_York
EXR,Exeter Amtrak,42.981020,-70.958700,http://www.amtrak.com/servlet/ContentServer?c=am2Station&pagename=am%2Fam2Station%2FStation_Page&p=1237405732508&cid=1229726269923,America/New_York
EXT,Exton Amtrak,40.019291,-75.621713,http://www.amtrak.com/servlet/ContentServer?c=am2Station&pagename=am%2Fam2Station%2FStation_Page&p=1237405732508&cid=1229726270326,America/New_York
FAR,Fargo Amtrak,46.880982,-96.785372,http://www.amtrak.com/servlet/ContentServer?c=am2Station&pagename=am%2Fam2Station%2FStation_Page&p=1237405732508&cid=1229726269078,America/Chicago
FAY,Fayetteville Amtrak,35.054993,-78.884788,http://www.amtrak.com/servlet/ContentServer?c=am2Station&pagename=am%2Fam2Station%2FStation_Page&p=1237405732508&cid=1229726268047,America/New_York
FBG,Fredericksburg Amtrak,38.298413,-77.457203,http://www.amtrak.com/servlet/ContentServer?c=am2Station&pagename=am%2Fam2Station%2FStation_Page&p=1237405732508&cid=1229726269804,America/New_York
FED,Fort Edward-Glens Falls Amtrak,43.269603,-73.580550,http://www.amtrak.com/servlet/ContentServer?c=am2Station&pagename=am%2Fam2Station%2FStation_Page&p=1237405732508&cid=1229726268199,America/New_York
FLG,Flagstaff Amtrak,35.197374,-111.648871,http://www.amtrak.com/servlet/ContentServer?c=am2Station&pagename=am%2Fam2Station%2FStation_Page&p=1237405732508&cid=1229726269662,America/Phoenix
FLN,Flint Amtrak,43.015425,-83.651728,http://www.amtrak.com/servlet/ContentServer?c=am2Station&pagename=am%2Fam2Station%2FStation_Page&p=1237405732508&cid=1229726269892,America/New_York
FLO,Florence Amtrak,34.199157,-79.757056,http://www.amtrak.com/servlet/ContentServer?c=am2Station&pagename=am%2Fam2Station%2FStation_Page&p=1237405732508&cid=1229726270401,America/New_York
FMD,Fort Madison Amtrak,40.622591,-91.336983,http://www.amtrak.com/servlet/ContentServer?c=am2Station&pagename=am%2Fam2Station%2FStation_Page&p=1237405732508&cid=1229726270659,America/Chicago
FMG,Fort Morgan Amtrak,40.247169,-103.802818,http://www.amtrak.com/servlet/ContentServer?c=am2Station&pagename=am%2Fam2Station%2FStation_Page&p=1237405732508&cid=1229726270099,America/Denver
FMT,Fremont Amtrak,37.559093,-122.007496,http://www.amtrak.com/servlet/ContentServer?c=am2Station&pagename=am%2Fam2Station%2FStation_Page&p=1237405732508&cid=1229726268037,America/Los_Angeles
FNO,Fresno Amtrak,36.738457,-119.782926,http://www.amtrak.com/servlet/ContentServer?c=am2Station&pagename=am%2Fam2Station%2FStation_Page&p=1237405732508&cid=1229726268519,America/Los_Angeles
FRA,Framingham Amtrak,42.276688,-71.417465,http://www.amtrak.com/servlet/ContentServer?c=am2Station&pagename=am%2Fam2Station%2FStation_Page&p=1237405732508&cid=1229726270804,America/New_York
FRE,Freeport,43.855035,-70.102358,http://www.amtrak.com/servlet/ContentServer?pagename=am/AM_Snippet_C/IBLegacy&code=FRE,America/New_York
FTC,Ticonderoga Amtrak,43.853788,-73.389681,http://www.amtrak.com/servlet/ContentServer?c=am2Station&pagename=am%2Fam2Station%2FStation_Page&p=1237405732508&cid=1229726270250,America/New_York
FTL,Fort Lauderdale Amtrak,26.119256,-80.170000,http://www.amtrak.com/servlet/ContentServer?c=am2Station&pagename=am%2Fam2Station%2FStation_Page&p=1237405732508&cid=1229726270055,America/New_York
FTN,Fulton Amtrak,36.525704,-88.888772,http://www.amtrak.com/servlet/ContentServer?c=am2Station&pagename=am%2Fam2Station%2FStation_Page&p=1237405732508&cid=1229726268270,America/Chicago
FTW,Fort Worth Intermodal Transportation Center,32.752563,-97.326673,http://www.amtrak.com/servlet/ContentServer?c=am2Station&pagename=am%2Fam2Station%2FStation_Page&p=1237405732508&cid=1229726268161,America/Chicago
FUL,Fullerton Transportation Center,33.868969,-117.922849,http://www.amtrak.com/servlet/ContentServer?c=am2Station&pagename=am%2Fam2Station%2FStation_Page&p=1237405732508&cid=1229726267961,America/Los_Angeles
GAC,Santa Clara Great America Station,37.406778,-121.967003,http://www.amtrak.com/servlet/ContentServer?c=am2Station&pagename=am%2Fam2Station%2FStation_Page&p=1237405732508&cid=1229726269828,America/Los_Angeles
GAS,Gastonia Amtrak,35.269186,-81.162366,http://www.amtrak.com/servlet/ContentServer?c=am2Station&pagename=am%2Fam2Station%2FStation_Page&p=1237405732508&cid=1229726270079,America/New_York
GBB,Galesburg Amtrak,40.944678,-90.364106,http://www.amtrak.com/servlet/ContentServer?c=am2Station&pagename=am%2Fam2Station%2FStation_Page&p=1237405732508&cid=1229726270234,America/Chicago
GCK,Garden City Amtrak,37.964365,-100.873256,http://www.amtrak.com/servlet/ContentServer?c=am2Station&pagename=am%2Fam2Station%2FStation_Page&p=1237405732508&cid=1229726269908,America/Chicago
GDL,Glendale Amtrak,34.123706,-118.258868,http://www.amtrak.com/servlet/ContentServer?c=am2Station&pagename=am%2Fam2Station%2FStation_Page&p=1237405732508&cid=1229726269727,America/Los_Angeles
GFK,Grand Forks Amtrak,47.917522,-97.110835,http://www.amtrak.com/servlet/ContentServer?c=am2Station&pagename=am%2Fam2Station%2FStation_Page&p=1237405732508&cid=1229726269856,America/Chicago
GGW,Glasgow Amtrak,48.194854,-106.636188,http://www.amtrak.com/servlet/ContentServer?c=am2Station&pagename=am%2Fam2Station%2FStation_Page&p=1237405732508&cid=1229726268322,America/Denver
GJT,Grand Junction Amtrak,39.064375,-108.569929,http://www.amtrak.com/servlet/ContentServer?c=am2Station&pagename=am%2Fam2Station%2FStation_Page&p=1237405732508&cid=1229726269872,America/Denver
GLE,Gainesville Amtrak,33.625159,-97.140896,http://www.amtrak.com/servlet/ContentServer?c=am2Station&pagename=am%2Fam2Station%2FStation_Page&p=1237405732508&cid=1229726269314,America/Chicago
GLM,Gilman Amtrak,40.752547,-87.998055,http://www.amtrak.com/servlet/ContentServer?c=am2Station&pagename=am%2Fam2Station%2FStation_Page&p=1237405732508&cid=1229726269683,America/Chicago
GLN,Glenview Amtrak,42.075038,-87.805562,http://www.amtrak.com/servlet/ContentServer?c=am2Station&pagename=am%2Fam2Station%2FStation_Page&p=1237405732508&cid=1229726268165,America/Chicago
GLP,Gallup Amtrak,35.529176,-108.740548,http://www.amtrak.com/servlet/ContentServer?c=am2Station&pagename=am%2Fam2Station%2FStation_Page&p=1237405732508&cid=1229726268793,America/Denver
GMS,Grimsby Amtrak,43.195910,-79.558007,http://www.amtrak.com/servlet/ContentServer?c=am2Station&pagename=am%2Fam2Station%2FStation_Page&p=1237405732508&cid=1229726268370,America/New_York
GNB,Greensburg Amtrak,40.304986,-79.546893,http://www.amtrak.com/servlet/ContentServer?c=am2Station&pagename=am%2Fam2Station%2FStation_Page&p=1237405732508&cid=1229726269896,America/New_York
GNS,Gainesville Amtrak,34.288897,-83.819694,http://www.amtrak.com/servlet/ContentServer?c=am2Station&pagename=am%2Fam2Station%2FStation_Page&p=1237405732508&cid=1229726270655,America/New_York
GPK,East Glacier Park Amtrak,48.442333,-113.219523,http://www.amtrak.com/servlet/ContentServer?c=am2Station&pagename=am%2Fam2Station%2FStation_Page&p=1237405732508&cid=1229726269552,America/Denver
GRA,Granby Amtrak,40.084188,-105.935503,http://www.amtrak.com/servlet/ContentServer?c=am2Station&pagename=am%2Fam2Station%2FStation_Page&p=1237405732508&cid=1229726270957,America/Denver
GRI,Green River Amtrak,38.992039,-110.165228,http://www.amtrak.com/servlet/ContentServer?c=am2Station&pagename=am%2Fam2Station%2FStation_Page&p=1237405732508&cid=1229726270647,America/Denver
GRO,Greensboro Galyon Transportation Center,36.069797,-79.787080,http://www.amtrak.com/servlet/ContentServer?c=am2Station&pagename=am%2Fam2Station%2FStation_Page&p=1237405732508&cid=1229726270035,America/New_York
GRR,Grand Rapids Amtrak,42.956349,-85.678868,http://www.amtrak.com/servlet/ContentServer?c=am2Station&pagename=am%2Fam2Station%2FStation_Page&p=1237405732508&cid=1229726268432,America/New_York
GRV,Greenville Amtrak,34.858256,-82.413486,http://www.amtrak.com/servlet/ContentServer?c=am2Station&pagename=am%2Fam2Station%2FStation_Page&p=1237405732508&cid=1229726269178,America/New_York
GSC,Glenwood Springs Amtrak,39.547903,-107.323218,http://www.amtrak.com/servlet/ContentServer?c=am2Station&pagename=am%2Fam2Station%2FStation_Page&p=1237405732508&cid=1229726268672,America/Denver
GTA,Goleta Amtrak,34.437729,-119.843092,http://www.amtrak.com/servlet/ContentServer?c=am2Station&pagename=am%2Fam2Station%2FStation_Page&p=1237405732508&cid=1229726268338,America/Los_Angeles
GUA,Guadalupe Amtrak,34.962927,-120.573410,http://www.amtrak.com/servlet/ContentServer?c=am2Station&pagename=am%2Fam2Station%2FStation_Page&p=1237405732508&cid=1229726268605,America/Los_Angeles
GVB,Grover Beach Amtrak,35.121260,-120.629266,http://www.amtrak.com/servlet/ContentServer?c=am2Station&pagename=am%2Fam2Station%2FStation_Page&p=1237405732508&cid=1229726269154,America/Los_Angeles
GWD,Greenwood Amtrak,33.517159,-90.176454,http://www.amtrak.com/servlet/ContentServer?c=am2Station&pagename=am%2Fam2Station%2FStation_Page&p=1237405732508&cid=1229726270358,America/Chicago
HAM,Hamlet Amtrak,34.883663,-79.699218,http://www.amtrak.com/servlet/ContentServer?c=am2Station&pagename=am%2Fam2Station%2FStation_Page&p=1237405732508&cid=1229726268410,America/New_York
HAR,Harrisburg Amtrak,40.262050,-76.878256,http://www.amtrak.com/servlet/ContentServer?c=am2Station&pagename=am%2Fam2Station%2FStation_Page&p=1237405732508&cid=1229726270578,America/New_York
HAS,Hastings Amtrak,40.584276,-98.387534,http://www.amtrak.com/servlet/ContentServer?c=am2Station&pagename=am%2Fam2Station%2FStation_Page&p=1237405732508&cid=1229726269792,America/Chicago
HAV,Havre Amtrak,48.554465,-109.678352,http://www.amtrak.com/servlet/ContentServer?c=am2Station&pagename=am%2Fam2Station%2FStation_Page&p=1237405732508&cid=1229726270871,America/Denver
HAY,Hayward Amtrak,37.665997,-122.099277,http://www.amtrak.com/servlet/ContentServer?c=am2Station&pagename=am%2Fam2Station%2FStation_Page&p=1237405732508&cid=1229726270366,America/Los_Angeles
HAZ,Hazlehurst Amtrak,31.861320,-90.394347,http://www.amtrak.com/servlet/ContentServer?c=am2Station&pagename=am%2Fam2Station%2FStation_Page&p=1237405732508&cid=1229726268664,America/Chicago
HBG,Hattiesburg Amtrak,31.326921,-89.286463,http://www.amtrak.com/servlet/ContentServer?c=am2Station&pagename=am%2Fam2Station%2FStation_Page&p=1237405732508&cid=1229726269425,America/Chicago
HEM,Hermann Amtrak,38.707222,-91.432571,http://www.amtrak.com/servlet/ContentServer?c=am2Station&pagename=am%2Fam2Station%2FStation_Page&p=1237405732508&cid=1229726268901,America/Chicago
HER,Helper Amtrak,39.684036,-110.853894,http://www.amtrak.com/servlet/ContentServer?c=am2Station&pagename=am%2Fam2Station%2FStation_Page&p=1237405732508&cid=1229726270728,America/Denver
HFD,Hartford Amtrak,41.768761,-72.681314,http://www.amtrak.com/servlet/ContentServer?c=am2Station&pagename=am%2Fam2Station%2FStation_Page&p=1237405732508&cid=1229726270580,America/New_York
HFY,Harpers Ferry Amtrak,39.324452,-77.731078,http://www.amtrak.com/servlet/ContentServer?c=am2Station&pagename=am%2Fam2Station%2FStation_Page&p=1237405732508&cid=1229726269318,America/New_York
HGD,Huntingdon Amtrak,40.483665,-78.011780,http://www.amtrak.com/servlet/ContentServer?c=am2Station&pagename=am%2Fam2Station%2FStation_Page&p=1237405732508&cid=1229726270819,America/New_York
HHL,Haverhill Amtrak,42.773297,-71.086375,http://www.amtrak.com/servlet/ContentServer?c=am2Station&pagename=am%2Fam2Station%2FStation_Page&p=1237405732508&cid=1229726269904,America/New_York
HIN,Hinton Amtrak,37.675037,-80.892232,http://www.amtrak.com/servlet/ContentServer?c=am2Station&pagename=am%2Fam2Station%2FStation_Page&p=1237405732508&cid=1229726267790,America/New_York
HLD,Holdrege Amtrak,40.435926,-99.371241,http://www.amtrak.com/servlet/ContentServer?c=am2Station&pagename=am%2Fam2Station%2FStation_Page&p=1237405732508&cid=1229726268186,America/Chicago
HMD,Hammond Amtrak,30.507180,-90.462169,http://www.amtrak.com/servlet/ContentServer?c=am2Station&pagename=am%2Fam2Station%2FStation_Page&p=1237405732508&cid=1229726268077,America/Chicago
HMI,Hammond-Whiting Amtrak,41.691155,-87.506511,http://www.amtrak.com/servlet/ContentServer?c=am2Station&pagename=am%2Fam2Station%2FStation_Page&p=1237405732508&cid=1229726269067,America/Chicago
HMW,Homewood Amtrak,41.562446,-87.668685,http://www.amtrak.com/servlet/ContentServer?c=am2Station&pagename=am%2Fam2Station%2FStation_Page&p=1237405732508&cid=1229726267913,America/Chicago
HNF,Hanford Amtrak,36.326078,-119.651816,http://www.amtrak.com/servlet/ContentServer?c=am2Station&pagename=am%2Fam2Station%2FStation_Page&p=1237405732508&cid=1229726269174,America/Los_Angeles
HOL,Hollywood Amtrak,26.011641,-80.167884,http://www.amtrak.com/servlet/ContentServer?c=am2Station&pagename=am%2Fam2Station%2FStation_Page&p=1237405732508&cid=1229726268274,America/New_York
HOM,Holland Amtrak,42.791096,-86.096553,http://www.amtrak.com/servlet/ContentServer?c=am2Station&pagename=am%2Fam2Station%2FStation_Page&p=1237405732508&cid=1229726270788,America/New_York
HOP,Hope,33.668913,-93.592247,http://www.amtrak.com/servlet/ContentServer?pagename=am/AM_Snippet_C/IBLegacy&code=HOP,America/Chicago
HOS,Houston Amtrak,29.767245,-95.367526,http://www.amtrak.com/servlet/ContentServer?c=am2Station&pagename=am%2Fam2Station%2FStation_Page&p=1237405732508&cid=1229726269201,America/Chicago
HPT,High Point Amtrak,35.957128,-80.006097,http://www.amtrak.com/servlet/ContentServer?c=am2Station&pagename=am%2Fam2Station%2FStation_Page&p=1237405732508&cid=1229726268785,America/New_York
HUD,Hudson Amtrak,42.253891,-73.797729,http://www.amtrak.com/servlet/ContentServer?c=am2Station&pagename=am%2Fam2Station%2FStation_Page&p=1237405732508&cid=1229726270546,America/New_York
HUN,Huntington Amtrak,38.415820,-82.439735,http://www.amtrak.com/servlet/ContentServer?c=am2Station&pagename=am%2Fam2Station%2FStation_Page&p=1237405732508&cid=1229726270167,America/New_York
HUT,Hutchinson Amtrak,38.055712,-97.931522,http://www.amtrak.com/servlet/ContentServer?c=am2Station&pagename=am%2Fam2Station%2FStation_Page&p=1237405732508&cid=1229726268539,America/Chicago
IDP,Independence Amtrak,39.086917,-94.429711,http://www.amtrak.com/servlet/ContentServer?c=am2Station&pagename=am%2Fam2Station%2FStation_Page&p=1237405732508&cid=1229726270417,America/Chicago
IND,Indianapolis Amtrak,39.761984,-86.160423,http://www.amtrak.com/servlet/ContentServer?c=am2Station&pagename=am%2Fam2Station%2FStation_Page&p=1237405732508&cid=1229726270843,America/New_York
IRV,Irvine Transportation Center,33.656771,-117.733695,http://www.amtrak.com/servlet/ContentServer?c=am2Station&pagename=am%2Fam2Station%2FStation_Page&p=1237405732508&cid=1229726268861,America/Los_Angeles
JAN,Jackson Amtrak,32.300808,-90.190936,http://www.amtrak.com/servlet/ContentServer?c=am2Station&pagename=am%2Fam2Station%2FStation_Page&p=1237405732508&cid=1229726270139,America/Chicago
JAX,Jacksonville Amtrak,30.365601,-81.723893,http://www.amtrak.com/servlet/ContentServer?c=am2Station&pagename=am%2Fam2Station%2FStation_Page&p=1237405732508&cid=1229726270462,America/New_York
JEF,Jefferson City Amtrak,38.578870,-92.169906,http://www.amtrak.com/servlet/ContentServer?c=am2Station&pagename=am%2Fam2Station%2FStation_Page&p=1237405732508&cid=1229726267890,America/Chicago
JOL,Joliet Union Station,41.524521,-88.079753,http://www.amtrak.com/servlet/ContentServer?c=am2Station&pagename=am%2Fam2Station%2FStation_Page&p=1237405732508&cid=1237405734860,America/Chicago
JSP,Jesup Amtrak,31.605589,-81.882173,http://www.amtrak.com/servlet/ContentServer?c=am2Station&pagename=am%2Fam2Station%2FStation_Page&p=1237405732508&cid=1229726270123,America/New_York
JST,Johnstown Amtrak,40.329689,-78.921996,http://www.amtrak.com/servlet/ContentServer?c=am2Station&pagename=am%2Fam2Station%2FStation_Page&p=1237405732508&cid=1229726269993,America/New_York
JXN,Jackson Amtrak,42.248113,-84.399670,http://www.amtrak.com/servlet/ContentServer?c=am2Station&pagename=am%2Fam2Station%2FStation_Page&p=1237405732508&cid=1229726270087,America/New_York
KAL,Kalamazoo Amtrak,42.295255,-85.584018,http://www.amtrak.com/servlet/ContentServer?c=am2Station&pagename=am%2Fam2Station%2FStation_Page&p=1237405732508&cid=1229726267833,America/New_York
KAN,Kannapolis Amtrak,35.496172,-80.624928,http://www.amtrak.com/servlet/ContentServer?c=am2Station&pagename=am%2Fam2Station%2FStation_Page&p=1237405732508&cid=1229726269322,America/New_York
KCY,Kansas City Amtrak,39.084576,-94.585129,http://www.amtrak.com/servlet/ContentServer?c=am2Station&pagename=am%2Fam2Station%2FStation_Page&p=1237405732508&cid=1229726268773,America/Chicago
KEE,Kewanee Amtrak,41.245765,-89.927544,http://www.amtrak.com/servlet/ContentServer?c=am2Station&pagename=am%2Fam2Station%2FStation_Page&p=1237405732508&cid=1229726268936,America/Chicago
KEL,Kelso-Longview Amtrak,46.142264,-122.913016,http://www.amtrak.com/servlet/ContentServer?c=am2Station&pagename=am%2Fam2Station%2FStation_Page&p=1237405732508&cid=1229726270973,America/Los_Angeles
KFS,Klamath Falls Amtrak,42.225509,-121.771952,http://www.amtrak.com/servlet/ContentServer?c=am2Station&pagename=am%2Fam2Station%2FStation_Page&p=1237405732508&cid=1229726269755,America/Los_Angeles
KIN,Kingston Amtrak,41.483959,-71.560597,http://www.amtrak.com/servlet/ContentServer?c=am2Station&pagename=am%2Fam2Station%2FStation_Page&p=1237405732508&cid=1229726268182,America/New_York
KIS,Kissimmee Amtrak,28.293835,-81.404234,http://www.amtrak.com/servlet/ContentServer?c=am2Station&pagename=am%2Fam2Station%2FStation_Page&p=1237405732508&cid=1229726268996,America/New_York
KKI,Kankakee Amtrak,41.119259,-87.865430,http://www.amtrak.com/servlet/ContentServer?c=am2Station&pagename=am%2Fam2Station%2FStation_Page&p=1237405732508&cid=1229726268190,America/Chicago
KNG,Kingman Amtrak,35.188279,-114.052816,http://www.amtrak.com/servlet/ContentServer?c=am2Station&pagename=am%2Fam2Station%2FStation_Page&p=1237405732508&cid=1229726269237,America/Phoenix
KTR,Kingstree Amtrak,33.663882,-79.829026,http://www.amtrak.com/servlet/ContentServer?c=am2Station&pagename=am%2Fam2Station%2FStation_Page&p=1237405732508&cid=1229726270202,America/New_York
KWD,Kirkwood Amtrak,38.581067,-90.406761,http://www.amtrak.com/servlet/ContentServer?c=am2Station&pagename=am%2Fam2Station%2FStation_Page&p=1237405732508&cid=1229726269731,America/Chicago
LAB,Latrobe Amtrak,40.317405,-79.385083,http://www.amtrak.com/servlet/ContentServer?c=am2Station&pagename=am%2Fam2Station%2FStation_Page&p=1237405732508&cid=1229726268637,America/New_York
LAF,Lafayette Amtrak,40.419347,-86.895901,http://www.amtrak.com/servlet/ContentServer?c=am2Station&pagename=am%2Fam2Station%2FStation_Page&p=1237405732508&cid=1229726269106,America/New_York
LAG,LaGrange Road Amtrak,41.815634,-87.871545,http://www.amtrak.com/servlet/ContentServer?c=am2Station&pagename=am%2Fam2Station%2FStation_Page&p=1237405732508&cid=1229726268278,America/Chicago
LAJ,La Junta Amtrak,37.988249,-103.543576,http://www.amtrak.com/servlet/ContentServer?c=am2Station&pagename=am%2Fam2Station%2FStation_Page&p=1237405732508&cid=1229726268956,America/Denver
LAK,Lakeland Amtrak,28.045603,-81.951874,http://www.amtrak.com/servlet/ContentServer?c=am2Station&pagename=am%2Fam2Station%2FStation_Page&p=1237405732508&cid=1229726268149,America/New_York
LAP,La Plata Amtrak,40.029220,-92.493384,http://www.amtrak.com/servlet/ContentServer?c=am2Station&pagename=am%2Fam2Station%2FStation_Page&p=1237405732508&cid=1229726268091,America/Chicago
LAU,Laurel Amtrak,31.692168,-89.127933,http://www.amtrak.com/servlet/ContentServer?c=am2Station&pagename=am%2Fam2Station%2FStation_Page&p=1237405732508&cid=1229726269844,America/Chicago
LAX,Los Angeles Union Station,34.056177,-118.236778,http://www.amtrak.com/servlet/ContentServer?c=am2Station&pagename=am%2Fam2Station%2FStation_Page&p=1237405732508&cid=1229726269378,America/Los_Angeles
LCH,Lake Charles Amtrak,30.238126,-93.217037,http://www.amtrak.com/servlet/ContentServer?c=am2Station&pagename=am%2Fam2Station%2FStation_Page&p=1237405732508&cid=1229726268523,America/Chicago
LCN,Lincoln Amtrak,40.147855,-89.363699,http://www.amtrak.com/servlet/ContentServer?c=am2Station&pagename=am%2Fam2Station%2FStation_Page&p=1237405732508&cid=1229726270179,America/Chicago
LDB,Lordsburg Amtrak,32.350070,-108.707025,http://www.amtrak.com/servlet/ContentServer?c=am2Station&pagename=am%2Fam2Station%2FStation_Page&p=1237405732508&cid=1229726268342,America/Denver
LEE,Lees Summit Amtrak,38.912623,-94.377972,http://www.amtrak.com/servlet/ContentServer?c=am2Station&pagename=am%2Fam2Station%2FStation_Page&p=1237405732508&cid=1229726267993,America/Chicago
LEW,Lewistown Amtrak,40.588309,-77.580047,http://www.amtrak.com/servlet/ContentServer?c=am2Station&pagename=am%2Fam2Station%2FStation_Page&p=1237405732508&cid=1229726270756,America/New_York
LFT,Lafayette Amtrak,30.226548,-92.014519,http://www.amtrak.com/servlet/ContentServer?c=am2Station&pagename=am%2Fam2Station%2FStation_Page&p=1237405732508&cid=1229726270671,America/Chicago
LIB,Libby Amtrak,48.394842,-115.548890,http://www.amtrak.com/servlet/ContentServer?c=am2Station&pagename=am%2Fam2Station%2FStation_Page&p=1237405732508&cid=1229726269935,America/Denver
LKL,Lakeland Amtrak,28.045603,-81.951874,http://www.amtrak.com/servlet/ContentServer?c=am2Station&pagename=am%2Fam2Station%2FStation_Page&p=1237405732508&cid=1229726269118,America/New_York
LMR,Lamar Amtrak,38.089623,-102.618574,http://www.amtrak.com/servlet/ContentServer?c=am2Station&pagename=am%2Fam2Station%2FStation_Page&p=1237405732508&cid=1229726270564,America/Denver
LMY,Lamy Amtrak,35.480973,-105.879968,http://www.amtrak.com/servlet/ContentServer?c=am2Station&pagename=am%2Fam2Station%2FStation_Page&p=1237405732508&cid=1229726268920,America/Denver
LNC,Lancaster Amtrak,40.054181,-76.307714,http://www.amtrak.com/servlet/ContentServer?c=am2Station&pagename=am%2Fam2Station%2FStation_Page&p=1237405732508&cid=1229726268117,America/New_York
LNK,Lincoln Amtrak,40.815871,-96.713170,http://www.amtrak.com/servlet/ContentServer?c=am2Station&pagename=am%2Fam2Station%2FStation_Page&p=1237405732508&cid=1229726267882,America/Chicago
LNS,East Lansing Amtrak,42.719007,-84.494828,http://www.amtrak.com/servlet/ContentServer?c=am2Station&pagename=am%2Fam2Station%2FStation_Page&p=1237405732508&cid=1229726270282,America/New_York
LOD,Lodi Transit Center,38.133201,-121.271887,http://www.amtrak.com/servlet/ContentServer?c=am2Station&pagename=am%2Fam2Station%2FStation_Page&p=1237405732508&cid=1229726270159,America/Los_Angeles
LOR,Lorton Auto Train Station,38.708143,-77.220942,http://www.amtrak.com/servlet/ContentServer?c=am2Station&pagename=am%2Fam2Station%2FStation_Page&p=1237405732508&cid=1229726268005,America/New_York
LPE,Lapeer Amtrak,43.049520,-83.306154,http://www.amtrak.com/servlet/ContentServer?c=am2Station&pagename=am%2Fam2Station%2FStation_Page&p=1237405732508&cid=1229726268585,America/New_York
LPS,Lompoc-Surf Amtrak,34.682704,-120.605001,http://www.amtrak.com/servlet/ContentServer?c=am2Station&pagename=am%2Fam2Station%2FStation_Page&p=1237405732508&cid=1229726268569,America/Los_Angeles
LRC,Lawrence Amtrak,38.971166,-95.230539,http://www.amtrak.com/servlet/ContentServer?c=am2Station&pagename=am%2Fam2Station%2FStation_Page&p=1237405732508&cid=1229726268821,America/Chicago
LRK,Little Rock Union Station,34.750298,-92.286785,http://www.amtrak.com/servlet/ContentServer?c=am2Station&pagename=am%2Fam2Station%2FStation_Page&p=1237405732508&cid=1229726269249,America/Chicago
LSE,La Crosse Amtrak,43.833155,-91.247298,http://www.amtrak.com/servlet/ContentServer?c=am2Station&pagename=am%2Fam2Station%2FStation_Page&p=1237405732508&cid=1229726268418,America/Chicago
LSV,Las Vegas Intermodal Facility,35.593432,-105.212779,http://www.amtrak.com/servlet/ContentServer?c=am2Station&pagename=am%2Fam2Station%2FStation_Page&p=1237405732508&cid=1229726270796,America/Denver
LVW,Longview Amtrak,32.494032,-94.728322,http://www.amtrak.com/servlet/ContentServer?c=am2Station&pagename=am%2Fam2Station%2FStation_Page&p=1237405732508&cid=1229726268464,America/Chicago
LWA,Leavenworth Icicle Station,47.605235,-120.641038,http://www.amtrak.com/servlet/ContentServer?c=am2Station&pagename=am%2Fam2Station%2FStation_Page&p=1237405732508&cid=1241305469347,America/Los_Angeles
LYH,Lynchburg Amtrak,37.406439,-79.156934,http://www.amtrak.com/servlet/ContentServer?c=am2Station&pagename=am%2Fam2Station%2FStation_Page&p=1237405732508&cid=1229726268980,America/New_York
MAC,Macomb Amtrak,40.461212,-90.670940,http://www.amtrak.com/servlet/ContentServer?c=am2Station&pagename=am%2Fam2Station%2FStation_Page&p=1237405732508&cid=1229726268178,America/Chicago
MAL,Malta Amtrak,48.360477,-107.872242,http://www.amtrak.com/servlet/ContentServer?c=am2Station&pagename=am%2Fam2Station%2FStation_Page&p=1237405732508&cid=1229726270619,America/Denver
MAT,Mattoon Amtrak,39.482730,-88.376045,http://www.amtrak.com/servlet/ContentServer?c=am2Station&pagename=am%2Fam2Station%2FStation_Page&p=1237405732508&cid=1229726268121,America/Chicago
MAY,Maysville Amtrak,38.652148,-83.771074,http://www.amtrak.com/servlet/ContentServer?c=am2Station&pagename=am%2Fam2Station%2FStation_Page&p=1237405732508&cid=1229726270591,America/New_York
MCB,McComb Amtrak,31.244467,-90.451334,http://www.amtrak.com/servlet/ContentServer?c=am2Station&pagename=am%2Fam2Station%2FStation_Page&p=1237405732508&cid=1229726268123,America/Chicago
MCD,Merced Amtrak,37.307183,-120.476805,http://www.amtrak.com/servlet/ContentServer?c=am2Station&pagename=am%2Fam2Station%2FStation_Page&p=1237405732508&cid=1229726269596,America/Los_Angeles
MCG,McGregor Amtrak,31.443352,-97.404756,http://www.amtrak.com/servlet/ContentServer?c=am2Station&pagename=am%2Fam2Station%2FStation_Page&p=1237405732508&cid=1229726269126,America/Chicago
MCI,Michigan City Amtrak,41.721103,-86.905385,http://www.amtrak.com/servlet/ContentServer?c=am2Station&pagename=am%2Fam2Station%2FStation_Page&p=1237405732508&cid=1229726270891,America/Chicago
MCK,McCook Amtrak,40.197634,-100.625792,http://www.amtrak.com/servlet/ContentServer?c=am2Station&pagename=am%2Fam2Station%2FStation_Page&p=1237405732508&cid=1229726269278,America/Chicago
MDN,Meriden Amtrak,41.539385,-72.800678,http://www.amtrak.com/servlet/ContentServer?c=am2Station&pagename=am%2Fam2Station%2FStation_Page&p=1237405732508&cid=1229726269090,America/New_York
MDR,Madera Amtrak,37.022471,-120.074980,http://www.amtrak.com/servlet/ContentServer?c=am2Station&pagename=am%2Fam2Station%2FStation_Page&p=1237405732508&cid=1229726269134,America/Los_Angeles
MDT,Mendota Amtrak,41.549584,-89.117920,http://www.amtrak.com/servlet/ContentServer?c=am2Station&pagename=am%2Fam2Station%2FStation_Page&p=1237405732508&cid=1229726270905,America/Chicago
MEI,Meridian Union Station,32.364166,-88.696568,http://www.amtrak.com/servlet/ContentServer?c=am2Station&pagename=am%2Fam2Station%2FStation_Page&p=1237405732508&cid=1229726268769,America/Chicago
MEM,Memphis Central Station,35.132458,-90.059109,http://www.amtrak.com/servlet/ContentServer?c=am2Station&pagename=am%2Fam2Station%2FStation_Page&p=1237405732508&cid=1229726268571,America/Chicago
MET,Metropark Amtrak,40.568056,-74.329583,http://www.amtrak.com/servlet/ContentServer?c=am2Station&pagename=am%2Fam2Station%2FStation_Page&p=1237405732508&cid=1229726269544,America/New_York
MHL,Marshall Amtrak,32.551549,-94.366995,http://www.amtrak.com/servlet/ContentServer?c=am2Station&pagename=am%2Fam2Station%2FStation_Page&p=1237405732508&cid=1229726268031,America/Chicago
MIA,Miami Amtrak,25.849554,-80.257759,http://www.amtrak.com/servlet/ContentServer?c=am2Station&pagename=am%2Fam2Station%2FStation_Page&p=1237405732508&cid=1229726270917,America/New_York
MID,Middletown Amtrak,40.192569,-76.730943,http://www.amtrak.com/servlet/ContentServer?c=am2Station&pagename=am%2Fam2Station%2FStation_Page&p=1237405732508&cid=1229726268545,America/New_York
MIN,Mineola Amtrak,32.662049,-95.489100,http://www.amtrak.com/servlet/ContentServer?c=am2Station&pagename=am%2Fam2Station%2FStation_Page&p=1237405732508&cid=1229726270907,America/Chicago
MJY,Mount Joy Amtrak,40.108960,-76.502641,http://www.amtrak.com/servlet/ContentServer?c=am2Station&pagename=am%2Fam2Station%2FStation_Page&p=1237405732508&cid=1229726269975,America/New_York
MKA,Milwaukee Mitchell Airport Amtrak,42.940583,-87.924359,http://www.amtrak.com/servlet/ContentServer?c=am2Station&pagename=am%2Fam2Station%2FStation_Page&p=1237405732508&cid=1229726270107,America/Chicago
MKE,Milwaukee Intermodal Station,43.034518,-87.917104,http://www.amtrak.com/servlet/ContentServer?c=am2Station&pagename=am%2Fam2Station%2FStation_Page&p=1237405732508&cid=1229726269852,America/Chicago
MNG,Montgomery Amtrak,38.180743,-81.324030,http://www.amtrak.com/servlet/ContentServer?c=am2Station&pagename=am%2Fam2Station%2FStation_Page&p=1237405732508&cid=1229726269048,America/New_York
MOD,Modesto Amtrak,37.668951,-120.912913,http://www.amtrak.com/servlet/ContentServer?c=am2Station&pagename=am%2Fam2Station%2FStation_Page&p=1237405732508&cid=1229726270346,America/Los_Angeles
MOT,Minot Amtrak,48.236083,-101.298557,http://www.amtrak.com/servlet/ContentServer?c=am2Station&pagename=am%2Fam2Station%2FStation_Page&p=1237405732508&cid=1229726269779,America/Chicago
MPK,Moorpark Amtrak,34.284760,-118.878059,http://www.amtrak.com/servlet/ContentServer?c=am2Station&pagename=am%2Fam2Station%2FStation_Page&p=1237405732508&cid=1229726268541,America/Los_Angeles
MPR,Montpelier-Barre Amtrak,44.255749,-72.606394,http://www.amtrak.com/servlet/ContentServer?c=am2Station&pagename=am%2Fam2Station%2FStation_Page&p=1237405732508&cid=1229726269358,America/New_York
MRB,Martinsburg Caperton Transportation Center,39.458661,-77.961014,http://www.amtrak.com/servlet/ContentServer?c=am2Station&pagename=am%2Fam2Station%2FStation_Page&p=1237405732508&cid=1229726267988,America/New_York
MRC,Maricopa Amtrak,33.056284,-112.047137,http://www.amtrak.com/servlet/ContentServer?c=am2Station&pagename=am%2Fam2Station%2FStation_Page&p=1237405732508&cid=1229726268972,America/Phoenix
MSP,St. Paul-Minneapolis Midway Station,44.947661,-93.085355,http://www.amtrak.com/servlet/ContentServer?c=am2Station&pagename=am%2Fam2Station%2FStation_Page&p=1237405732508&cid=1229726268754,America/Chicago
MSS,Manassas Amtrak,38.750084,-77.472577,http://www.amtrak.com/servlet/ContentServer?c=am2Station&pagename=am%2Fam2Station%2FStation_Page&p=1237405732508&cid=1229726268797,America/New_York
MTP,Mount Pleasant Amtrak,40.971179,-91.550772,http://www.amtrak.com/servlet/ContentServer?c=am2Station&pagename=am%2Fam2Station%2FStation_Page&p=1237405732508&cid=1229726269687,America/Chicago
MTR,Montreal Central Station,45.500169,-73.565767,http://www.amtrak.com/servlet/ContentServer?c=am2Station&pagename=am%2Fam2Station%2FStation_Page&p=1237405732508&cid=1229726268051,America/New_York
MTZ,Martinez Amtrak,38.018921,-122.138784,http://www.amtrak.com/servlet/ContentServer?c=am2Station&pagename=am%2Fam2Station%2FStation_Page&p=1237405732508&cid=1229726269071,America/Los_Angeles
MVN,Malvern Amtrak,34.365484,-92.814018,http://www.amtrak.com/servlet/ContentServer?c=am2Station&pagename=am%2Fam2Station%2FStation_Page&p=1237405732508&cid=1229726268246,America/Chicago
MVW,Mount Vernon Skagit Transportation Center,48.418470,-122.334738,http://www.amtrak.com/servlet/ContentServer?c=am2Station&pagename=am%2Fam2Station%2FStation_Page&p=1237405732508&cid=1229726269052,America/Los_Angeles
MYS,Mystic Amtrak,41.350934,-71.963093,http://www.amtrak.com/servlet/ContentServer?c=am2Station&pagename=am%2Fam2Station%2FStation_Page&p=1237405732508&cid=1229726267925,America/New_York
NBK,New Brunswick Amtrak,40.496522,-74.446265,http://www.amtrak.com/servlet/ContentServer?c=am2Station&pagename=am%2Fam2Station%2FStation_Page&p=1237405732508&cid=1229726268069,America/New_York
NBN,Newbern-Dyersburg Amtrak,36.112711,-89.262264,http://www.amtrak.com/servlet/ContentServer?c=am2Station&pagename=am%2Fam2Station%2FStation_Page&p=1237405732508&cid=1229726270135,America/Chicago
NBU,New Buffalo Amtrak,41.796656,-86.745782,http://www.amtrak.com/servlet/ContentServer?c=am2Station&pagename=am%2Fam2Station%2FStation_Page&p=1237405732508&cid=1246042119912,America/New_York
NCR,New Carrollton Amtrak,38.948098,-76.871494,http://www.amtrak.com/servlet/ContentServer?c=am2Station&pagename=am%2Fam2Station%2FStation_Page&p=1237405732508&cid=1229726268258,America/New_York
NDL,Needles Amtrak,34.839964,-114.604635,http://www.amtrak.com/servlet/ContentServer?c=am2Station&pagename=am%2Fam2Station%2FStation_Page&p=1237405732508&cid=1229726269508,America/Los_Angeles
NEW,Newton Amtrak,38.046976,-97.344886,http://www.amtrak.com/servlet/ContentServer?c=am2Station&pagename=am%2Fam2Station%2FStation_Page&p=1237405732508&cid=1229726269880,America/Chicago
NFK,Norfolk,36.843509,-76.276195,http://www.amtrak.com/servlet/ContentServer?pagename=am/AM_Snippet_C/IBLegacy&code=NFK,America/New_York
NFL,Niagara Falls Amtrak,43.113548,-79.031865,http://www.amtrak.com/servlet/ContentServer?c=am2Station&pagename=am%2Fam2Station%2FStation_Page&p=1237405732508&cid=1229726269771,America/New_York
NFS,Niagara Falls Amtrak,43.108736,-79.063291,http://www.amtrak.com/servlet/ContentServer?c=am2Station&pagename=am%2Fam2Station%2FStation_Page&p=1237405732508&cid=1229726270859,America/New_York
NHV,New Haven Union Station,41.297714,-72.926670,http://www.amtrak.com/servlet/ContentServer?c=am2Station&pagename=am%2Fam2Station%2FStation_Page&p=1237405732508&cid=1229726269512,America/New_York
NIB,New Iberia Amtrak,30.008415,-91.823809,http://www.amtrak.com/servlet/ContentServer?c=am2Station&pagename=am%2Fam2Station%2FStation_Page&p=1237405732508&cid=1229726268873,America/Chicago
NLC,New London Union Station,41.354267,-72.093225,http://www.amtrak.com/servlet/ContentServer?c=am2Station&pagename=am%2Fam2Station%2FStation_Page&p=1237405732508&cid=1229726268099,America/New_York
NLS,Niles Amtrak,41.837412,-86.252372,http://www.amtrak.com/servlet/ContentServer?c=am2Station&pagename=am%2Fam2Station%2FStation_Page&p=1237405732508&cid=1229726270780,America/New_York
NOL,New Orleans Union Passenger Terminal,29.946085,-90.078291,http://www.amtrak.com/servlet/ContentServer?c=am2Station&pagename=am%2Fam2Station%2FStation_Page&p=1237405732508&cid=1229726270679,America/Chicago
NOR,Norman Amtrak,35.219963,-97.443013,http://www.amtrak.com/servlet/ContentServer?c=am2Station&pagename=am%2Fam2Station%2FStation_Page&p=1237405732508&cid=1229726268141,America/Chicago
NPN,Newport News Amtrak,37.022731,-76.451970,http://www.amtrak.com/servlet/ContentServer?c=am2Station&pagename=am%2Fam2Station%2FStation_Page&p=1237405732508&cid=1229726268829,America/New_York
NPV,Naperville Amtrak,41.779514,-88.145497,http://www.amtrak.com/servlet/ContentServer?c=am2Station&pagename=am%2Fam2Station%2FStation_Page&p=1237405732508&cid=1237405734876,America/Chicago
NRK,Newark Amtrak,39.669686,-75.753513,http://www.amtrak.com/servlet/ContentServer?c=am2Station&pagename=am%2Fam2Station%2FStation_Page&p=1237405732508&cid=1229726269429,America/New_York
NRO,New Rochelle Amtrak,40.911451,-73.784329,http://www.amtrak.com/servlet/ContentServer?c=am2Station&pagename=am%2Fam2Station%2FStation_Page&p=1237405732508&cid=1229726269258,America/New_York
NWK,Newark Penn Station,40.734706,-74.164750,http://www.amtrak.com/servlet/ContentServer?c=am2Station&pagename=am%2Fam2Station%2FStation_Page&p=1237405732508&cid=1229726268003,America/New_York
NYP,New York Penn Station,40.750327,-73.994459,http://www.amtrak.com/servlet/ContentServer?c=am2Station&pagename=am%2Fam2Station%2FStation_Page&p=1237405732508&cid=1229726269504,America/New_York
OAC,Oakland Coliseum Station,37.752499,-122.198147,http://www.amtrak.com/servlet/ContentServer?c=am2Station&pagename=am%2Fam2Station%2FStation_Page&p=1237405732508&cid=1229726270071,America/Los_Angeles
OKC,Oklahoma City Amtrak,35.465490,-97.512749,http://www.amtrak.com/servlet/ContentServer?c=am2Station&pagename=am%2Fam2Station%2FStation_Page&p=1237405732508&cid=1229726268067,America/Chicago
OKE,Okeechobee Amtrak,27.251867,-80.830812,http://www.amtrak.com/servlet/ContentServer?c=am2Station&pagename=am%2Fam2Station%2FStation_Page&p=1237405732508&cid=1229726270437,America/New_York
OKJ,Oakland Jack London Square Station,37.793866,-122.271667,http://www.amtrak.com/servlet/ContentServer?c=am2Station&pagename=am%2Fam2Station%2FStation_Page&p=1237405732508&cid=1229726268073,America/Los_Angeles
OKL,Oakville Amtrak,43.455394,-79.682392,http://www.amtrak.com/servlet/ContentServer?c=am2Station&pagename=am%2Fam2Station%2FStation_Page&p=1237405732508&cid=1229726269536,America/New_York
OLT,San Diego Old Town Transportation Center,32.755266,-117.200073,http://www.amtrak.com/servlet/ContentServer?c=am2Station&pagename=am%2Fam2Station%2FStation_Page&p=1237405732508&cid=1229726269715,America/Los_Angeles
OLW,Olympia-Lacey Centennial Station,46.991273,-122.794059,http://www.amtrak.com/servlet/ContentServer?c=am2Station&pagename=am%2Fam2Station%2FStation_Page&p=1237405732508&cid=1229726268893,America/Los_Angeles
OMA,Omaha Amtrak,41.249828,-95.928650,http://www.amtrak.com/servlet/ContentServer?c=am2Station&pagename=am%2Fam2Station%2FStation_Page&p=1237405732508&cid=1229726269592,America/Chicago
ONA,Ontario Amtrak,34.061672,-117.649569,http://www.amtrak.com/servlet/ContentServer?c=am2Station&pagename=am%2Fam2Station%2FStation_Page&p=1237405732508&cid=1229726268310,America/Los_Angeles
ORB,Old Orchard Beach Amtrak,43.514326,-70.376225,http://www.amtrak.com/servlet/ContentServer?c=am2Station&pagename=am%2Fam2Station%2FStation_Page&p=1237405732508&cid=1229726270639,America/New_York
ORC,Oregon City Amtrak,45.366146,-122.595925,http://www.amtrak.com/servlet/ContentServer?c=am2Station&pagename=am%2Fam2Station%2FStation_Page&p=1237405732508&cid=1229726268153,America/Los_Angeles
ORL,Orlando Amtrak,28.525926,-81.381516,http://www.amtrak.com/servlet/ContentServer?c=am2Station&pagename=am%2Fam2Station%2FStation_Page&p=1237405732508&cid=1229726268227,America/New_York
OSB,Old Saybrook Amtrak,41.300390,-72.376818,http://www.amtrak.com/servlet/ContentServer?c=am2Station&pagename=am%2Fam2Station%2FStation_Page&p=1237405732508&cid=1229726269488,America/New_York
OSC,Osceola Amtrak,41.037116,-93.764894,http://www.amtrak.com/servlet/ContentServer?c=am2Station&pagename=am%2Fam2Station%2FStation_Page&p=1237405732508&cid=1229726268484,America/Chicago
OSD,Oceanside Transportation Center,33.192515,-117.379430,http://www.amtrak.com/servlet/ContentServer?c=am2Station&pagename=am%2Fam2Station%2FStation_Page&p=1237405732508&cid=1229726267841,America/Los_Angeles
OTM,Ottumwa Amtrak,41.018815,-92.414929,http://www.amtrak.com/servlet/ContentServer?c=am2Station&pagename=am%2Fam2Station%2FStation_Page&p=1237405732508&cid=1229726268573,America/Chicago
OXN,Oxnard Transportation Center,34.199241,-119.175978,http://www.amtrak.com/servlet/ContentServer?c=am2Station&pagename=am%2Fam2Station%2FStation_Page&p=1237405732508&cid=1229726269568,America/Los_Angeles
PAK,Palatka Amtrak,29.649734,-81.640471,http://www.amtrak.com/servlet/ContentServer?c=am2Station&pagename=am%2Fam2Station%2FStation_Page&p=1237405732508&cid=1229726270043,America/New_York
PAO,Paoli Amtrak,40.042754,-75.483760,http://www.amtrak.com/servlet/ContentServer?c=am2Station&pagename=am%2Fam2Station%2FStation_Page&p=1237405732508&cid=1229726270226,America/New_York
PAR,Parkesburg Amtrak,39.959180,-75.922123,http://www.amtrak.com/servlet/ContentServer?c=am2Station&pagename=am%2Fam2Station%2FStation_Page&p=1237405732508&cid=1229726268905,America/New_York
PBF,Poplar Bluff Amtrak,36.753995,-90.393341,http://www.amtrak.com/servlet/ContentServer?c=am2Station&pagename=am%2Fam2Station%2FStation_Page&p=1237405732508&cid=1229726268948,America/Chicago
PCT,Princeton Amtrak,41.385191,-89.466815,http://www.amtrak.com/servlet/ContentServer?c=am2Station&pagename=am%2Fam2Station%2FStation_Page&p=1237405732508&cid=1229726270839,America/Chicago
PDX,Portland Union Station,45.528724,-122.676806,http://www.amtrak.com/servlet/ContentServer?c=am2Station&pagename=am%2Fam2Station%2FStation_Page&p=1237405732508&cid=1229726270534,America/Los_Angeles
PGH,Pittsburgh Amtrak,40.443880,-79.992733,http://www.amtrak.com/servlet/ContentServer?c=am2Station&pagename=am%2Fam2Station%2FStation_Page&p=1237405732508&cid=1229726268496,America/New_York
PHL,Philadelphia 30th Street Station,39.955615,-75.181041,http://www.amtrak.com/servlet/ContentServer?c=am2Station&pagename=am%2Fam2Station%2FStation_Page&p=1237405732508&cid=1229726270614,America/New_York
PHN,North Philadelphia Amtrak,39.996780,-75.155114,http://www.amtrak.com/servlet/ContentServer?c=am2Station&pagename=am%2Fam2Station%2FStation_Page&p=1237405732508&cid=1229726269036,America/New_York
PIC,Picayune Amtrak,30.524606,-89.680260,http://www.amtrak.com/servlet/ContentServer?c=am2Station&pagename=am%2Fam2Station%2FStation_Page&p=1237405732508&cid=1229726270183,America/Chicago
PIT,Pittsfield Amtrak,42.451558,-73.253800,http://www.amtrak.com/servlet/ContentServer?c=am2Station&pagename=am%2Fam2Station%2FStation_Page&p=1237405732508&cid=1229726267867,America/New_York
PJC,Princeton Junction Amtrak,40.315850,-74.623976,http://www.amtrak.com/servlet/ContentServer?c=am2Station&pagename=am%2Fam2Station%2FStation_Page&p=1237405732508&cid=1229726268382,America/New_York
PLB,Plattsburgh Amtrak,44.696728,-73.446284,http://www.amtrak.com/servlet/ContentServer?c=am2Station&pagename=am%2Fam2Station%2FStation_Page&p=1237405732508&cid=1229726267863,America/New_York
PLO,Plano Amtrak,41.662384,-88.538272,http://www.amtrak.com/servlet/ContentServer?c=am2Station&pagename=am%2Fam2Station%2FStation_Page&p=1237405732508&cid=1237405734891,America/Chicago
PNT,Pontiac Amtrak,42.632771,-83.292325,http://www.amtrak.com/servlet/ContentServer?c=am2Station&pagename=am%2Fam2Station%2FStation_Page&p=1237405732508&cid=1229726270198,America/New_York
POG,Portage Amtrak,43.547079,-89.467627,http://www.amtrak.com/servlet/ContentServer?c=am2Station&pagename=am%2Fam2Station%2FStation_Page&p=1237405732508&cid=1229726268527,America/Chicago
POH,Port Henry Amtrak,44.042297,-73.458753,http://www.amtrak.com/servlet/ContentServer?c=am2Station&pagename=am%2Fam2Station%2FStation_Page&p=1237405732508&cid=1229726270921,America/New_York
POI,Carlsbad,33.109248,-117.318743,http://www.amtrak.com/servlet/ContentServer?pagename=am/AM_Snippet_C/IBLegacy&code=POI,America/Los_Angeles
PON,Pontiac Amtrak,40.879652,-88.636601,http://www.amtrak.com/servlet/ContentServer?c=am2Station&pagename=am%2Fam2Station%2FStation_Page&p=1237405732508&cid=1229726268952,America/Chicago
POR,Portland Transportation Center,43.654097,-70.291258,http://www.amtrak.com/servlet/ContentServer?c=am2Station&pagename=am%2Fam2Station%2FStation_Page&p=1237405732508&cid=1229726268394,America/New_York
POS,Pomona,34.059224,-117.750621,http://www.amtrak.com/servlet/ContentServer?pagename=am/AM_Snippet_C/IBLegacy&code=POS,America/Los_Angeles
POU,Poughkeepsie Amtrak,41.707056,-73.937490,http://www.amtrak.com/servlet/ContentServer?c=am2Station&pagename=am%2Fam2Station%2FStation_Page&p=1237405732508&cid=1229726270969,America/New_York
PRB,Paso Robles Intermodal Station,35.622683,-120.687860,http://www.amtrak.com/servlet/ContentServer?c=am2Station&pagename=am%2Fam2Station%2FStation_Page&p=1237405732508&cid=1229726267825,America/Los_Angeles
PRC,Prince Amtrak,37.856594,-81.060694,http://www.amtrak.com/servlet/ContentServer?c=am2Station&pagename=am%2Fam2Station%2FStation_Page&p=1237405732508&cid=1229726269640,America/New_York
PRK,Port Kent Amtrak,44.524079,-73.403536,http://www.amtrak.com/servlet/ContentServer?c=am2Station&pagename=am%2Fam2Station%2FStation_Page&p=1237405732508&cid=1229726268809,America/New_York
PRO,Provo Amtrak,40.225957,-111.664001,http://www.amtrak.com/servlet/ContentServer?c=am2Station&pagename=am%2Fam2Station%2FStation_Page&p=1237405732508&cid=1229726268729,America/Denver
PSC,Pasco Intermodal Station,46.237012,-119.087729,http://www.amtrak.com/servlet/ContentServer?c=am2Station&pagename=am%2Fam2Station%2FStation_Page&p=1237405732508&cid=1229726270210,America/Los_Angeles
PSN,Palm Springs Amtrak,33.897491,-116.547913,http://www.amtrak.com/servlet/ContentServer?c=am2Station&pagename=am%2Fam2Station%2FStation_Page&p=1237405732508&cid=1229726270390,America/Los_Angeles
PTB,Petersburg Amtrak,37.241627,-77.428794,http://www.amtrak.com/servlet/ContentServer?c=am2Station&pagename=am%2Fam2Station%2FStation_Page&p=1237405732508&cid=1229726270354,America/New_York
PTH,Port Huron Amtrak,42.960419,-82.443805,http://www.amtrak.com/servlet/ContentServer?c=am2Station&pagename=am%2Fam2Station%2FStation_Page&p=1237405732508&cid=1229726269241,America/New_York
PUR,Purcell Amtrak,35.012033,-97.357416,http://www.amtrak.com/servlet/ContentServer?c=am2Station&pagename=am%2Fam2Station%2FStation_Page&p=1237405732508&cid=1229726270027,America/Chicago
PVD,Providence Amtrak,41.829490,-71.413478,http://www.amtrak.com/servlet/ContentServer?c=am2Station&pagename=am%2Fam2Station%2FStation_Page&p=1237405732508&cid=1229726270708,America/New_York
PVL,Pauls Valley Amtrak,34.741735,-97.218460,http://www.amtrak.com/servlet/ContentServer?c=am2Station&pagename=am%2Fam2Station%2FStation_Page&p=1237405732508&cid=1229726268231,America/Chicago
QAN,Quantico Amtrak,38.521882,-77.293027,http://www.amtrak.com/servlet/ContentServer?c=am2Station&pagename=am%2Fam2Station%2FStation_Page&p=1237405732508&cid=1229726269485,America/New_York
QCY,Quincy Amtrak,39.957063,-91.368525,http://www.amtrak.com/servlet/ContentServer?c=am2Station&pagename=am%2Fam2Station%2FStation_Page&p=1237405732508&cid=1229726268689,America/Chicago
RAT,Raton Amtrak,36.901072,-104.437886,http://www.amtrak.com/servlet/ContentServer?c=am2Station&pagename=am%2Fam2Station%2FStation_Page&p=1237405732508&cid=1229726269394,America/Denver
RDD,Redding Amtrak,40.583595,-122.393370,http://www.amtrak.com/servlet/ContentServer?c=am2Station&pagename=am%2Fam2Station%2FStation_Page&p=1237405732508&cid=1229726268738,America/Los_Angeles
RDW,Red Wing Amtrak,44.566214,-92.537066,http://www.amtrak.com/servlet/ContentServer?c=am2Station&pagename=am%2Fam2Station%2FStation_Page&p=1237405732508&cid=1229726270816,America/Chicago
REN,Rensselaer Amtrak,40.943281,-87.155121,http://www.amtrak.com/servlet/ContentServer?c=am2Station&pagename=am%2Fam2Station%2FStation_Page&p=1237405732508&cid=1229726267953,America/Chicago
RGH,Raleigh Amtrak,35.774923,-78.645894,http://www.amtrak.com/servlet/ContentServer?c=am2Station&pagename=am%2Fam2Station%2FStation_Page&p=1237405732508&cid=1229726269747,America/New_York
RHI,Rhinecliff-Kingston Amtrak,41.921346,-73.951278,http://www.amtrak.com/servlet/ContentServer?c=am2Station&pagename=am%2Fam2Station%2FStation_Page&p=1237405732508&cid=1229726268097,America/New_York
RIC,Richmond Transit Station,37.936752,-122.354130,http://www.amtrak.com/servlet/ContentServer?c=am2Station&pagename=am%2Fam2Station%2FStation_Page&p=1237405732508&cid=1229726270493,America/Los_Angeles
RIV,Riverside Amtrak,33.975670,-117.369988,http://www.amtrak.com/servlet/ContentServer?c=am2Station&pagename=am%2Fam2Station%2FStation_Page&p=1237405732508&cid=1229726269576,America/Los_Angeles
RKV,Rockville Amtrak,39.084547,-77.145995,http://www.amtrak.com/servlet/ContentServer?c=am2Station&pagename=am%2Fam2Station%2FStation_Page&p=1237405732508&cid=1229726270254,America/New_York
RLN,Rocklin Amtrak,38.791006,-121.237299,http://www.amtrak.com/servlet/ContentServer?c=am2Station&pagename=am%2Fam2Station%2FStation_Page&p=1237405732508&cid=1229726270441,America/Los_Angeles
RMT,Rocky Mount Amtrak,35.938001,-77.797855,http://www.amtrak.com/servlet/ContentServer?c=am2Station&pagename=am%2Fam2Station%2FStation_Page&p=1237405732508&cid=1229726269695,America/New_York
RNO,Reno Amtrak,39.528521,-119.812123,http://www.amtrak.com/servlet/ContentServer?c=am2Station&pagename=am%2Fam2Station%2FStation_Page&p=1237405732508&cid=1229726269836,America/Los_Angeles
ROC,Rochester Amtrak,43.163411,-77.608057,http://www.amtrak.com/servlet/ContentServer?c=am2Station&pagename=am%2Fam2Station%2FStation_Page&p=1237405732508&cid=1229726269532,America/New_York
ROM,Rome Amtrak,43.199425,-75.449960,http://www.amtrak.com/servlet/ContentServer?c=am2Station&pagename=am%2Fam2Station%2FStation_Page&p=1237405732508&cid=1229726268849,America/New_York
ROY,Royal Oak Amtrak,42.488439,-83.147010,http://www.amtrak.com/servlet/ContentServer?c=am2Station&pagename=am%2Fam2Station%2FStation_Page&p=1237405732508&cid=1229726269209,America/New_York
RPH,Randolph Amtrak,43.922398,-72.665459,http://www.amtrak.com/servlet/ContentServer?c=am2Station&pagename=am%2Fam2Station%2FStation_Page&p=1237405732508&cid=1229726268139,America/New_York
RSP,Rouses Point Amtrak,44.994870,-73.371093,http://www.amtrak.com/servlet/ContentServer?c=am2Station&pagename=am%2Fam2Station%2FStation_Page&p=1237405732508&cid=1229726269286,America/New_York
RSV,Roseville Amtrak,38.750016,-121.286286,http://www.amtrak.com/servlet/ContentServer?c=am2Station&pagename=am%2Fam2Station%2FStation_Page&p=1237405732508&cid=1229726269860,America/Los_Angeles
RTE,Route 128 Amtrak,42.210242,-71.147894,http://www.amtrak.com/servlet/ContentServer?c=am2Station&pagename=am%2Fam2Station%2FStation_Page&p=1237405732508&cid=1229726269158,America/New_York
RTL,Rantoul Amtrak,40.310905,-88.159126,http://www.amtrak.com/servlet/ContentServer?c=am2Station&pagename=am%2Fam2Station%2FStation_Page&p=1237405732508&cid=1229726268709,America/Chicago
RUD,Rutland Amtrak,43.605756,-72.981538,http://www.amtrak.com/servlet/ContentServer?c=am2Station&pagename=am%2Fam2Station%2FStation_Page&p=1237405732508&cid=1229726270286,America/New_York
RUG,Rugby Amtrak,48.369846,-99.997556,http://www.amtrak.com/servlet/ContentServer?c=am2Station&pagename=am%2Fam2Station%2FStation_Page&p=1237405732508&cid=1229726270800,America/Chicago
RVM,Richmond Main Street Station,37.534209,-77.429512,http://www.amtrak.com/servlet/ContentServer?c=am2Station&pagename=am%2Fam2Station%2FStation_Page&p=1237405732508&cid=1229726268609,America/New_York
RVR,Richmond Staples Mill Station,37.617693,-77.496943,http://www.amtrak.com/servlet/ContentServer?c=am2Station&pagename=am%2Fam2Station%2FStation_Page&p=1237405732508&cid=1229726268079,America/New_York
SAB,St. Albans Amtrak,44.812360,-73.086191,http://www.amtrak.com/servlet/ContentServer?c=am2Station&pagename=am%2Fam2Station%2FStation_Page&p=1237405732508&cid=1229726268427,America/New_York
SAC,Sacramento Amtrak,38.584004,-121.500704,http://www.amtrak.com/servlet/ContentServer?c=am2Station&pagename=am%2Fam2Station%2FStation_Page&p=1237405732508&cid=1229726267808,America/Los_Angeles
SAL,Salisbury Amtrak,35.667496,-80.466323,http://www.amtrak.com/servlet/ContentServer?c=am2Station&pagename=am%2Fam2Station%2FStation_Page&p=1237405732508&cid=1229726270895,America/New_York
SAN,San Diego Santa Fe Depot,32.716169,-117.169576,http://www.amtrak.com/servlet/ContentServer?c=am2Station&pagename=am%2Fam2Station%2FStation_Page&p=1237405732508&cid=1229726268877,America/Los_Angeles
SAO,Saco Amtrak,43.496191,-70.449139,http://www.amtrak.com/servlet/ContentServer?c=am2Station&pagename=am%2Fam2Station%2FStation_Page&p=1237405732508&cid=1229726270191,America/New_York
SAR,Saratoga Springs Amtrak,43.082810,-73.810027,http://www.amtrak.com/servlet/ContentServer?c=am2Station&pagename=am%2Fam2Station%2FStation_Page&p=1237405732508&cid=1229726267997,America/New_York
SAS,San Antonio Amtrak,29.419350,-98.478143,http://www.amtrak.com/servlet/ContentServer?c=am2Station&pagename=am%2Fam2Station%2FStation_Page&p=1237405732508&cid=1229726268215,America/Chicago
SAV,Savannah Amtrak,32.083412,-81.148264,http://www.amtrak.com/servlet/ContentServer?c=am2Station&pagename=am%2Fam2Station%2FStation_Page&p=1237405732508&cid=1229726269229,America/New_York
SBA,Santa Barbara Amtrak,34.413718,-119.692785,http://www.amtrak.com/servlet/ContentServer?c=am2Station&pagename=am%2Fam2Station%2FStation_Page&p=1237405732508&cid=1229726270517,America/Los_Angeles
SBG,Sebring Amtrak,27.496632,-81.434202,http://www.amtrak.com/servlet/ContentServer?c=am2Station&pagename=am%2Fam2Station%2FStation_Page&p=1237405732508&cid=1229726269138,America/New_York
SBY,Shelby Amtrak,48.506748,-111.856649,http://www.amtrak.com/servlet/ContentServer?c=am2Station&pagename=am%2Fam2Station%2FStation_Page&p=1237405732508&cid=1229726267933,America/Denver
SCA,St. Catharines Amtrak,43.147829,-79.256017,http://www.amtrak.com/servlet/ContentServer?c=am2Station&pagename=am%2Fam2Station%2FStation_Page&p=1237405732508&cid=1229726270937,America/New_York
SCC,Santa Clara,37.353219,-121.936576,http://www.amtrak.com/servlet/ContentServer?pagename=am/AM_Snippet_C/IBLegacy&code=SCC,America/Los_Angeles
SCD,St. Cloud Amtrak,45.567748,-94.149093,http://www.amtrak.com/servlet/ContentServer?c=am2Station&pagename=am%2Fam2Station%2FStation_Page&p=1237405732508&cid=1229726270019,America/Chicago
SCH,Schriever Amtrak,29.746678,-90.815246,http://www.amtrak.com/servlet/ContentServer?c=am2Station&pagename=am%2Fam2Station%2FStation_Page&p=1237405732508&cid=1229726269947,America/Chicago
SDL,Slidell Amtrak,30.278372,-89.782565,http://www.amtrak.com/servlet/ContentServer?c=am2Station&pagename=am%2Fam2Station%2FStation_Page&p=1237405732508&cid=1229726270394,America/Chicago
SDY,Schenectady Amtrak,42.814606,-73.942887,http://www.amtrak.com/servlet/ContentServer?c=am2Station&pagename=am%2Fam2Station%2FStation_Page&p=1237405732508&cid=1229726268960,America/New_York
SEA,Seattle King Street Station,47.598445,-122.330161,http://www.amtrak.com/servlet/ContentServer?c=am2Station&pagename=am%2Fam2Station%2FStation_Page&p=1237405732508&cid=1229726269374,America/Los_Angeles
SED,Sedalia Amtrak,38.711604,-93.228706,http://www.amtrak.com/servlet/ContentServer?c=am2Station&pagename=am%2Fam2Station%2FStation_Page&p=1237405732508&cid=1229726270933,America/Chicago
SFA,Sanford Auto Train Station,28.808544,-81.291274,http://www.amtrak.com/servlet/ContentServer?c=am2Station&pagename=am%2Fam2Station%2FStation_Page&p=1237405732508&cid=1229726270501,America/New_York
SIM,Simi Valley Amtrak,34.270204,-118.695163,http://www.amtrak.com/servlet/ContentServer?c=am2Station&pagename=am%2Fam2Station%2FStation_Page&p=1237405732508&cid=1229726269102,America/Los_Angeles
SJC,San Jose Diridon Station,37.329933,-121.902388,http://www.amtrak.com/servlet/ContentServer?c=am2Station&pagename=am%2Fam2Station%2FStation_Page&p=1237405732508&cid=1229726270965,America/Los_Angeles
SJM,St. Joseph-Benton Harbor Amtrak,42.109080,-86.484484,http://www.amtrak.com/servlet/ContentServer?c=am2Station&pagename=am%2Fam2Station%2FStation_Page&p=1237405732508&cid=1229726269604,America/New_York
SKN,Stockton San Joaquin Street Station,37.945468,-121.285632,http://www.amtrak.com/servlet/ContentServer?c=am2Station&pagename=am%2Fam2Station%2FStation_Page&p=1237405732508&cid=1229726270925,America/Los_Angeles
SKT,Stockton Robert Cabral Station,37.957038,-121.279000,http://www.amtrak.com/servlet/ContentServer?c=am2Station&pagename=am%2Fam2Station%2FStation_Page&p=1237405732508&cid=1229726268057,America/Los_Angeles
SKY,Sandusky Amtrak,41.440671,-82.717866,http://www.amtrak.com/servlet/ContentServer?c=am2Station&pagename=am%2Fam2Station%2FStation_Page&p=1237405732508&cid=1229726270588,America/New_York
SLC,Salt Lake City Amtrak,40.761661,-111.908349,http://www.amtrak.com/servlet/ContentServer?c=am2Station&pagename=am%2Fam2Station%2FStation_Page&p=1237405732508&cid=1229726269824,America/Denver
SLM,Salem Amtrak,44.932331,-123.028331,http://www.amtrak.com/servlet/ContentServer?c=am2Station&pagename=am%2Fam2Station%2FStation_Page&p=1237405732508&cid=1229726270470,America/Los_Angeles
SLO,San Luis Obispo Amtrak,35.276434,-120.654701,http://www.amtrak.com/servlet/ContentServer?c=am2Station&pagename=am%2Fam2Station%2FStation_Page&p=1237405732508&cid=1229726268500,America/Los_Angeles
SLQ,St-Lambert Amtrak,45.498896,-73.507287,http://www.amtrak.com/servlet/ContentServer?c=am2Station&pagename=am%2Fam2Station%2FStation_Page&p=1237405732508&cid=1229726270382,America/New_York
SMC,San Marcos Intermodal Station,29.876571,-97.941049,http://www.amtrak.com/servlet/ContentServer?c=am2Station&pagename=am%2Fam2Station%2FStation_Page&p=1237405732508&cid=1229726269445,America/Chicago
SMT,Summit Amtrak,41.794912,-87.809742,http://www.amtrak.com/servlet/ContentServer?c=am2Station&pagename=am%2Fam2Station%2FStation_Page&p=1237405732508&cid=1237405734844,America/Chicago
SNA,Santa Ana Regional Transportation Center,33.751629,-117.856607,http://www.amtrak.com/servlet/ContentServer?c=am2Station&pagename=am%2Fam2Station%2FStation_Page&p=1237405732508&cid=1229726270560,America/Los_Angeles
SNB,San Bernardino Amtrak,34.104112,-117.310659,http://www.amtrak.com/servlet/ContentServer?c=am2Station&pagename=am%2Fam2Station%2FStation_Page&p=1237405732508&cid=1229726268402,America/Los_Angeles
SNC,San Juan Capistrano Amtrak,33.501318,-117.663813,http://www.amtrak.com/servlet/ContentServer?c=am2Station&pagename=am%2Fam2Station%2FStation_Page&p=1237405732508&cid=1229726268889,America/Los_Angeles
SND,Sanderson Amtrak,30.139951,-102.398746,http://www.amtrak.com/servlet/ContentServer?c=am2Station&pagename=am%2Fam2Station%2FStation_Page&p=1237405732508&cid=1229726270526,America/Chicago
SNP,San Clemente Pier Amtrak,33.419645,-117.619733,http://www.amtrak.com/servlet/ContentServer?c=am2Station&pagename=am%2Fam2Station%2FStation_Page&p=1237405732508&cid=1229726270342,America/Los_Angeles
SNS,Salinas Amtrak,36.679145,-121.656745,http://www.amtrak.com/servlet/ContentServer?c=am2Station&pagename=am%2Fam2Station%2FStation_Page&p=1237405732508&cid=1229726269473,America/Los_Angeles
SOB,South Bend Amtrak,41.678360,-86.287345,http://www.amtrak.com/servlet/ContentServer?c=am2Station&pagename=am%2Fam2Station%2FStation_Page&p=1237405732508&cid=1229726268061,America/New_York
SOL,Solana Beach Amtrak,32.992937,-117.271135,http://www.amtrak.com/servlet/ContentServer?c=am2Station&pagename=am%2Fam2Station%2FStation_Page&p=1237405732508&cid=1229726270887,America/Los_Angeles
SOP,Southern Pines Amtrak,35.175069,-79.390303,http://www.amtrak.com/servlet/ContentServer?c=am2Station&pagename=am%2Fam2Station%2FStation_Page&p=1237405732508&cid=1229726269616,America/New_York
SPB,Spartanburg Amtrak,34.953736,-81.936917,http://www.amtrak.com/servlet/ContentServer?c=am2Station&pagename=am%2Fam2Station%2FStation_Page&p=1237405732508&cid=1229726269190,America/New_York
SPG,Springfield Amtrak,42.105987,-72.592905,http://www.amtrak.com/servlet/ContentServer?c=am2Station&pagename=am%2Fam2Station%2FStation_Page&p=1237405732508&cid=1229726270386,America/New_York
SPI,Springfield Amtrak,39.802323,-89.651384,http://www.amtrak.com/servlet/ContentServer?c=am2Station&pagename=am%2Fam2Station%2FStation_Page&p=1237405732508&cid=1229726268697,America/Chicago
SPK,Spokane Amtrak,47.656720,-117.415455,http://www.amtrak.com/servlet/ContentServer?c=am2Station&pagename=am%2Fam2Station%2FStation_Page&p=1237405732508&cid=1229726270334,America/Los_Angeles
SPL,Staples Amtrak,46.354601,-94.795331,http://www.amtrak.com/servlet/ContentServer?c=am2Station&pagename=am%2Fam2Station%2FStation_Page&p=1237405732508&cid=1229726269675,America/Chicago
SPM,South Portsmouth Amtrak,38.721281,-82.963751,http://www.amtrak.com/servlet/ContentServer?c=am2Station&pagename=am%2Fam2Station%2FStation_Page&p=1237405732508&cid=1229726268781,America/New_York
SPT,Sandpoint Amtrak,48.276234,-116.545583,http://www.amtrak.com/servlet/ContentServer?c=am2Station&pagename=am%2Fam2Station%2FStation_Page&p=1237405732508&cid=1229726270039,America/Los_Angeles
SRB,Sorrento Valley,32.902684,-117.224892,http://www.amtrak.com/servlet/ContentServer?pagename=am/AM_Snippet_C/IBLegacy&code=SRB,America/Los_Angeles
SSM,Selma-Smithfield Amtrak,35.532786,-78.280099,http://www.amtrak.com/servlet/ContentServer?c=am2Station&pagename=am%2Fam2Station%2FStation_Page&p=1237405732508&cid=1229726270075,America/New_York
STA,Staunton Amtrak,38.147639,-79.071776,http://www.amtrak.com/servlet/ContentServer?c=am2Station&pagename=am%2Fam2Station%2FStation_Page&p=1237405732508&cid=1229726268143,America/New_York
STL,St. Louis Gateway Station,38.624461,-90.203838,http://www.amtrak.com/servlet/ContentServer?c=am2Station&pagename=am%2Fam2Station%2FStation_Page&p=1237405732508&cid=1229726269864,America/Chicago
STM,Stamford Amtrak,41.047130,-73.542160,http://www.amtrak.com/servlet/ContentServer?c=am2Station&pagename=am%2Fam2Station%2FStation_Page&p=1237405732508&cid=1229726268932,America/New_York
STN,Stanley Amtrak,48.319813,-102.389379,http://www.amtrak.com/servlet/ContentServer?c=am2Station&pagename=am%2Fam2Station%2FStation_Page&p=1237405732508&cid=1229726268306,America/Chicago
STW,Stanwood Amtrak,48.242638,-122.349935,http://www.amtrak.com/servlet/ContentServer?c=am2Station&pagename=am%2Fam2Station%2FStation_Page&p=1237405732508&cid=1246042126551,America/Los_Angeles
SUI,Suisun-Fairfield Amtrak,38.243401,-122.041099,http://www.amtrak.com/servlet/ContentServer?c=am2Station&pagename=am%2Fam2Station%2FStation_Page&p=1237405732508&cid=1229726268913,America/Los_Angeles
SVT,Sturtevant Amtrak,42.718292,-87.906300,http://www.amtrak.com/servlet/ContentServer?c=am2Station&pagename=am%2Fam2Station%2FStation_Page&p=1237405732508&cid=1229726269808,America/Chicago
SYR,Syracuse Regional Transportation Center,43.076548,-76.169244,http://www.amtrak.com/servlet/ContentServer?c=am2Station&pagename=am%2Fam2Station%2FStation_Page&p=1237405732508&cid=1229726268853,America/New_York
TAC,Tacoma Amtrak,47.241894,-122.420509,http://www.amtrak.com/servlet/ContentServer?c=am2Station&pagename=am%2Fam2Station%2FStation_Page&p=1237405732508&cid=1229726270700,America/Los_Angeles
TAY,Taylor Amtrak,30.567667,-97.407763,http://www.amtrak.com/servlet/ContentServer?c=am2Station&pagename=am%2Fam2Station%2FStation_Page&p=1237405732508&cid=1229726270362,America/Chicago
TCA,Toccoa Amtrak,34.578456,-83.331542,http://www.amtrak.com/servlet/ContentServer?c=am2Station&pagename=am%2Fam2Station%2FStation_Page&p=1237405732508&cid=1229726270768,America/New_York
TCL,Tuscaloosa Amtrak,33.193165,-87.560228,http://www.amtrak.com/servlet/ContentServer?c=am2Station&pagename=am%2Fam2Station%2FStation_Page&p=1237405732508&cid=1229726268581,America/Chicago
THN,Thurmond Amtrak,37.956986,-81.078754,http://www.amtrak.com/servlet/ContentServer?c=am2Station&pagename=am%2Fam2Station%2FStation_Page&p=1237405732508&cid=1229726268801,America/New_York
TOH,Tomah Amtrak,43.986007,-90.505331,http://www.amtrak.com/servlet/ContentServer?c=am2Station&pagename=am%2Fam2Station%2FStation_Page&p=1237405732508&cid=1229726267957,America/Chicago
TOL,Toledo Central Union Plaza,41.638345,-83.541721,http://www.amtrak.com/servlet/ContentServer?c=am2Station&pagename=am%2Fam2Station%2FStation_Page&p=1237405732508&cid=1229726269205,America/New_York
TOP,Topeka Amtrak,39.051415,-95.664916,http://www.amtrak.com/servlet/ContentServer?c=am2Station&pagename=am%2Fam2Station%2FStation_Page&p=1237405732508&cid=1229726267857,America/Chicago
TPA,Tampa Amtrak,27.952492,-82.450777,http://www.amtrak.com/servlet/ContentServer?c=am2Station&pagename=am%2Fam2Station%2FStation_Page&p=1237405732508&cid=1229726269796,America/New_York
TPL,Temple Amtrak,31.095883,-97.345792,http://www.amtrak.com/servlet/ContentServer?c=am2Station&pagename=am%2Fam2Station%2FStation_Page&p=1237405732508&cid=1229726269528,America/Chicago
TRE,Trenton Transit Center,40.219011,-74.754440,http://www.amtrak.com/servlet/ContentServer?c=am2Station&pagename=am%2Fam2Station%2FStation_Page&p=1237405732508&cid=1229726269197,America/New_York
TRI,Trinidad Amtrak,37.172688,-104.507981,http://www.amtrak.com/servlet/ContentServer?c=am2Station&pagename=am%2Fam2Station%2FStation_Page&p=1237405732508&cid=1229726269449,America/Denver
TRK,Turlock-Denair Amtrak,37.527229,-120.798009,http://www.amtrak.com/servlet/ContentServer?c=am2Station&pagename=am%2Fam2Station%2FStation_Page&p=1237405732508&cid=1229726268025,America/Los_Angeles
TRU,Truckee Amtrak,39.327616,-120.185387,http://www.amtrak.com/servlet/ContentServer?c=am2Station&pagename=am%2Fam2Station%2FStation_Page&p=1237405732508&cid=1229726270115,America/Los_Angeles
TUK,Tukwila Amtrak,47.461081,-122.240254,http://www.amtrak.com/servlet/ContentServer?c=am2Station&pagename=am%2Fam2Station%2FStation_Page&p=1237405732508&cid=1229726270867,America/Los_Angeles
TUS,Tucson Amtrak,32.222977,-110.966770,http://www.amtrak.com/servlet/ContentServer?c=am2Station&pagename=am%2Fam2Station%2FStation_Page&p=1237405732508&cid=1229726270278,America/Phoenix
TWO,Toronto Union Station,43.645427,-79.380762,http://www.amtrak.com/servlet/ContentServer?c=am2Station&pagename=am%2Fam2Station%2FStation_Page&p=1237405732508&cid=1229726270405,America/New_York
TXA,Texarkana Amtrak,33.420067,-94.043082,http://www.amtrak.com/servlet/ContentServer?c=am2Station&pagename=am%2Fam2Station%2FStation_Page&p=1237405732508&cid=1229726270015,America/Chicago
TYR,Tyrone Amtrak,40.667705,-78.240470,http://www.amtrak.com/servlet/ContentServer?c=am2Station&pagename=am%2Fam2Station%2FStation_Page&p=1237405732508&cid=1229726270242,America/New_York
UCA,Utica Boehlert Transportation Center,43.103892,-75.223434,http://www.amtrak.com/servlet/ContentServer?c=am2Station&pagename=am%2Fam2Station%2FStation_Page&p=1237405732508&cid=1229726269848,America/New_York
VAC,Vancouver Pacific Central Station,49.273757,-123.098336,http://www.amtrak.com/servlet/ContentServer?c=am2Station&pagename=am%2Fam2Station%2FStation_Page&p=1237405732508&cid=1229726270945,America/Los_Angeles
VAN,Vancouver Amtrak,45.628901,-122.686544,http://www.amtrak.com/servlet/ContentServer?c=am2Station&pagename=am%2Fam2Station%2FStation_Page&p=1237405732508&cid=1229726268009,America/Los_Angeles
VEC,Ventura Amtrak,34.276929,-119.299918,http://www.amtrak.com/servlet/ContentServer?c=am2Station&pagename=am%2Fam2Station%2FStation_Page&p=1237405732508&cid=1229726268976,America/Los_Angeles
VNC,Van Nuys Amtrak,34.211294,-118.448206,http://www.amtrak.com/servlet/ContentServer?c=am2Station&pagename=am%2Fam2Station%2FStation_Page&p=1237405732508&cid=1229726269213,America/Los_Angeles
VRV,Victorville Victor Valley Transit Center,34.537200,-117.292956,http://www.amtrak.com/servlet/ContentServer?c=am2Station&pagename=am%2Fam2Station%2FStation_Page&p=1237405732508&cid=1229726270899,America/Los_Angeles
WAB,Waterbury-Stowe Amtrak,44.335011,-72.751806,http://www.amtrak.com/servlet/ContentServer?c=am2Station&pagename=am%2Fam2Station%2FStation_Page&p=1237405732508&cid=1229726268406,America/New_York
WAC,Wasco Amtrak,35.594092,-119.332309,http://www.amtrak.com/servlet/ContentServer?c=am2Station&pagename=am%2Fam2Station%2FStation_Page&p=1237405732508&cid=1229726269298,America/Los_Angeles
WAH,Washington Amtrak,38.561466,-91.012717,http://www.amtrak.com/servlet/ContentServer?c=am2Station&pagename=am%2Fam2Station%2FStation_Page&p=1237405732508&cid=1229726269767,America/Chicago
WAR,Warrensburg Amtrak,38.762750,-93.740900,http://www.amtrak.com/servlet/ContentServer?c=am2Station&pagename=am%2Fam2Station%2FStation_Page&p=1237405732508&cid=1229726268131,America/Chicago
WAS,Washington Union Station,38.896993,-77.006422,http://www.amtrak.com/servlet/ContentServer?c=am2Station&pagename=am%2Fam2Station%2FStation_Page&p=1237405732508&cid=1237487764649,America/New_York
WBG,Williamsburg Amtrak,37.276414,-76.708564,http://www.amtrak.com/servlet/ContentServer?c=am2Station&pagename=am%2Fam2Station%2FStation_Page&p=1237405732508&cid=1229726270550,America/New_York
WDB,Woodbridge Amtrak,38.658915,-77.247852,http://www.amtrak.com/servlet/ContentServer?c=am2Station&pagename=am%2Fam2Station%2FStation_Page&p=1237405732508&cid=1229726270338,America/New_York
WDL,Wisconsin Dells Amtrak,43.626509,-89.777451,http://www.amtrak.com/servlet/ContentServer?c=am2Station&pagename=am%2Fam2Station%2FStation_Page&p=1237405732508&cid=1229726268223,America/Chicago
WEM,Wells Amtrak,43.320836,-70.612192,http://www.amtrak.com/servlet/ContentServer?c=am2Station&pagename=am%2Fam2Station%2FStation_Page&p=1237405732508&cid=1229726268928,America/New_York
WEN,Wenatchee Columbia Station,47.421556,-120.306552,http://www.amtrak.com/servlet/ContentServer?c=am2Station&pagename=am%2Fam2Station%2FStation_Page&p=1237405732508&cid=1229726270627,America/Los_Angeles
WFD,Wallingford Amtrak,41.456969,-72.825221,http://www.amtrak.com/servlet/ContentServer?c=am2Station&pagename=am%2Fam2Station%2FStation_Page&p=1237405732508&cid=1229726269651,America/New_York
WFH,Whitefish Amtrak,48.413474,-114.335575,http://www.amtrak.com/servlet/ContentServer?c=am2Station&pagename=am%2Fam2Station%2FStation_Page&p=1237405732508&cid=1229726270949,America/Denver
WGL,West Glacier Amtrak,48.496218,-113.979164,http://www.amtrak.com/servlet/ContentServer?c=am2Station&pagename=am%2Fam2Station%2FStation_Page&p=1237405732508&cid=1229726268897,America/Denver
WHL,Whitehall Amtrak,43.554694,-73.403207,http://www.amtrak.com/servlet/ContentServer?c=am2Station&pagename=am%2Fam2Station%2FStation_Page&p=1237405732508&cid=1229726268805,America/New_York
WIH,Wishram Amtrak,45.657669,-120.966142,http://www.amtrak.com/servlet/ContentServer?c=am2Station&pagename=am%2Fam2Station%2FStation_Page&p=1237405732508&cid=1229726270290,America/Los_Angeles
WIL,Wilmington Amtrak,39.737263,-75.551095,http://www.amtrak.com/servlet/ContentServer?c=am2Station&pagename=am%2Fam2Station%2FStation_Page&p=1237405732508&cid=1229726269572,America/New_York
WIN,Winona Amtrak,44.044404,-91.640073,http://www.amtrak.com/servlet/ContentServer?c=am2Station&pagename=am%2Fam2Station%2FStation_Page&p=1237405732508&cid=1229726268881,America/Chicago
WIP,Fraser-Winter Park Amtrak,39.947566,-105.817388,http://www.amtrak.com/servlet/ContentServer?c=am2Station&pagename=am%2Fam2Station%2FStation_Page&p=1237405732508&cid=1229726270566,America/Denver
WLN,Wilson Amtrak,35.723135,-77.908029,http://www.amtrak.com/servlet/ContentServer?c=am2Station&pagename=am%2Fam2Station%2FStation_Page&p=1237405732508&cid=1229726270455,America/New_York
WLO,Winslow Amtrak,35.021666,-110.694981,http://www.amtrak.com/servlet/ContentServer?c=am2Station&pagename=am%2Fam2Station%2FStation_Page&p=1237405732508&cid=1229726268113,America/Phoenix
WLY,Westerly Amtrak,41.381081,-71.829780,http://www.amtrak.com/servlet/ContentServer?c=am2Station&pagename=am%2Fam2Station%2FStation_Page&p=1237405732508&cid=1229726269044,America/New_York
WMJ,Williams Junction Amtrak,35.251950,-112.190106,http://www.amtrak.com/servlet/ContentServer?c=am2Station&pagename=am%2Fam2Station%2FStation_Page&p=1237405732508&cid=1229726268577,America/Phoenix
WND,Windsor Amtrak,41.852013,-72.642253,http://www.amtrak.com/servlet/ContentServer?c=am2Station&pagename=am%2Fam2Station%2FStation_Page&p=1237405732508&cid=1229726268681,America/New_York
WNL,Windsor Locks Amtrak,41.913956,-72.626101,http://www.amtrak.com/servlet/ContentServer?c=am2Station&pagename=am%2Fam2Station%2FStation_Page&p=1237405732508&cid=1229726268109,America/New_York
WNM,Windsor-Mt. Ascutney Amtrak,43.479908,-72.384985,http://www.amtrak.com/servlet/ContentServer?c=am2Station&pagename=am%2Fam2Station%2FStation_Page&p=1237405732508&cid=1229726270374,America/New_York
WNN,Winnemucca Amtrak,40.969044,-117.732210,http://www.amtrak.com/servlet/ContentServer?c=am2Station&pagename=am%2Fam2Station%2FStation_Page&p=1237405732508&cid=1229726269670,America/Los_Angeles
WNR,Walnut Ridge Amtrak,36.067660,-90.956766,http://www.amtrak.com/servlet/ContentServer?c=am2Station&pagename=am%2Fam2Station%2FStation_Page&p=1237405732508&cid=1229726269421,America/Chicago
WOB,Woburn Anderson Transportation Center,42.517358,-71.143823,http://www.amtrak.com/servlet/ContentServer?c=am2Station&pagename=am%2Fam2Station%2FStation_Page&p=1237405732508&cid=1229726268027,America/New_York
WOR,Worcester Amtrak,42.261478,-71.794812,http://www.amtrak.com/servlet/ContentServer?c=am2Station&pagename=am%2Fam2Station%2FStation_Page&p=1237405732508&cid=1229726268129,America/New_York
WPB,West Palm Beach Amtrak,26.712554,-80.062184,http://www.amtrak.com/servlet/ContentServer?c=am2Station&pagename=am%2Fam2Station%2FStation_Page&p=1237405732508&cid=1229726269481,America/New_York
WPK,Winter Park Amtrak,28.597654,-81.351842,http://www.amtrak.com/servlet/ContentServer?c=am2Station&pagename=am%2Fam2Station%2FStation_Page&p=1237405732508&cid=1229726269991,America/New_York
WPT,Wolf Point Amtrak,48.091672,-105.642736,http://www.amtrak.com/servlet/ContentServer?c=am2Station&pagename=am%2Fam2Station%2FStation_Page&p=1237405732508&cid=1229726270981,America/Denver
WRJ,White River Junction Amtrak,43.647785,-72.317272,http://www.amtrak.com/servlet/ContentServer?c=am2Station&pagename=am%2Fam2Station%2FStation_Page&p=1237405732508&cid=1229726269971,America/New_York
WSP,Westport Amtrak,44.187288,-73.451773,http://www.amtrak.com/servlet/ContentServer?c=am2Station&pagename=am%2Fam2Station%2FStation_Page&p=1237405732508&cid=1229726267812,America/New_York
WSS,White Sulphur Springs Amtrak,37.786443,-80.304004,http://www.amtrak.com/servlet/ContentServer?c=am2Station&pagename=am%2Fam2Station%2FStation_Page&p=1237405732508&cid=1229726270246,America/New_York
WTH,Winter Haven Amtrak,28.002146,-81.734878,http://www.amtrak.com/servlet/ContentServer?c=am2Station&pagename=am%2Fam2Station%2FStation_Page&p=1237405732508&cid=1229726267921,America/New_York
WTI,Waterloo Amtrak,41.431687,-85.025659,http://www.amtrak.com/servlet/ContentServer?c=am2Station&pagename=am%2Fam2Station%2FStation_Page&p=1237405732508&cid=1229726270302,America/New_York
WTN,Williston Amtrak,48.143000,-103.620926,http://www.amtrak.com/servlet/ContentServer?c=am2Station&pagename=am%2Fam2Station%2FStation_Page&p=1237405732508&cid=1229726269496,America/Chicago
YAZ,Yazoo City Amtrak,32.848477,-90.415230,http://www.amtrak.com/servlet/ContentServer?c=am2Station&pagename=am%2Fam2Station%2FStation_Page&p=1237405732508&cid=1229726268472,America/Chicago
YEM,Yemassee Amtrak,32.688286,-80.846901,http://www.amtrak.com/servlet/ContentServer?c=am2Station&pagename=am%2Fam2Station%2FStation_Page&p=1237405732508&cid=1229726268127,America/New_York
YNY,Yonkers Amtrak,40.935586,-73.902263,http://www.amtrak.com/servlet/ContentServer?c=am2Station&pagename=am%2Fam2Station%2FStation_Page&p=1237405732508&cid=1229726269983,America/New_York
YUM,Yuma,32.723139,-114.615571,http://www.amtrak.com/servlet/ContentServer?pagename=am/AM_Snippet_C/IBLegacy&code=YUM,America/Phoenix
