stop_id,stop_code,stop_name,stop_desc,stop_lat,stop_lon,zone_id,stop_url,location_type,parent_station,stop_timezone,wheelchair_boarding
5/0,PEC=05,                         F,,0,0,,,,,Europe/London,0
AAP,ALEXNDP,Alexandra Palace,1,51.59792,-0.12024,,,,,Europe/London,0
AAT,ACHANLT,Achanalt,0,57.6096,-4.91385,,,,,Europe/London,0
ABA,ABDARE,Aberdare,0,51.71506,-3.44308,,,,,Europe/London,0
ABC,ALTNBRC,Altnabreac,0,58.38815,-3.70628,,,,,Europe/London,0
ABD,ABRDEEN,Aberdeen,2,57.1437,-2.09869,,,,,Europe/London,0
ABE,ABER,Aber,0,51.57497,-3.22983,,,,,Europe/London,0
ABF,ASHUBUS,Ashurst (Kent) - Bald Faced Stag PH,1,51.13071,0.15846,,,,,Europe/London,0
ABH,ABRE,Abererch,0,52.89858,-4.37418,,,,,Europe/London,0
ABW,ABWD,Abbey Wood (London),0,51.49106,0.12139,,,,,Europe/London,0
ABY,ASHBRYS,Ashburys,1,53.47164,-2.19444,,,,,Europe/London,0
ACB,ACBG,Acton Bridge,0,53.26651,-2.60313,,,,,Europe/London,0
ACC,ACTNCTL,Acton Central,0,51.50872,-0.26297,,,,,Europe/London,0
ACG,ACOCKSG,Acocks Green,0,52.44932,-1.81898,,,,,Europe/London,0
ACH,ACHHSHL,Achnashellach,0,57.48207,-5.33306,,,,,Europe/London,0
ACK,ACKLNGT,Acklington,0,55.3071,-1.65183,,,,,Europe/London,0
ACL,ACLE,Acle,0,52.63468,1.54392,,,,,Europe/London,0
ACN,ACHNSHN,Achnasheen,0,57.57929,-5.07233,,,,,Europe/London,0
ACR,ACRNGTN,Accrington,1,53.75297,-2.36955,,,,,Europe/London,0
ACT,ASCOT,Ascot,2,51.40624,-0.67583,,,,,Europe/London,0
ACY,ABRCYNS,Abercynon,1,51.64345,-3.32857,,,,,Europe/London,0
ADC,ADLC,Adlington (Cheshire),0,53.31955,-2.13356,,,,,Europe/London,0
ADD,ADERLYP,Adderley Park,0,52.48309,-1.85594,,,,,Europe/London,0
ADK,ARDWICK,Ardwick,0,53.47155,-2.21432,,,,,Europe/London,0
ADL,ADNL,Adlington (Lancs),0,53.61324,-2.60307,,,,,Europe/London,0
ADM,ADISHAM,Adisham,0,51.2412,1.19909,,,,,Europe/London,0
ADN,ARDRSTN,Ardrossan Town,0,55.63971,-4.81268,,,,,Europe/London,0
ADR,AIRDRIE,Airdrie,1,55.86398,-3.98291,,,,,Europe/London,0
ADS,ARDRSHB,Ardrossan Harbour,1,55.63987,-4.82111,,,,,Europe/London,0
ADV,ANDOVER,Andover,2,51.21155,-1.49223,,,,,Europe/London,0
ADW,ADIEWEL,Addiewell,0,55.84341,-3.60653,,,,,Europe/London,0
AFK,ASHFKY,Ashford International,2,51.14371,0.8762,,,,,Europe/London,0
AFS,ASFDMSX,Ashford (Surrey),0,51.43651,-0.46807,,,,,Europe/London,0
AFV,ANSDELL,Ansdell & Fairhaven,0,53.74146,-2.99303,,,,,Europe/London,0
AGL,ABGLELE,Abergele & Pensarn,0,53.29457,-3.58262,,,,,Europe/London,0
AGS,ARGYLST,Argyle Street,0,55.8573,-4.25069,,,,,Europe/London,0
AGT,ALDTON,Aldrington,0,50.83638,-0.18382,,,,,Europe/London,0
AGV,ABRGVNY,Abergavenny,2,51.81669,-3.00965,,,,,Europe/London,0
AHD,ASHD,Ashtead,0,51.31787,-0.30757,,,,,Europe/London,0
AHN,ASHONUL,Ashton-under-Lyne,0,53.49127,-2.09431,,,,,Europe/London,0
AHS,ASHURST,Ashurst (Kent),0,51.12866,0.15265,,,,,Europe/London,0
AHT,ALDRSHT,Aldershot,2,51.24642,-0.75986,,,,,Europe/London,0
AHV,ASHVALE,Ash Vale,2,51.27225,-0.72165,,,,,Europe/London,0
AIG,AIGBURT,Aigburth,0,53.36456,-2.92715,,,,,Europe/London,0
AIN,AINTREE,Aintree,0,53.47391,-2.95628,,,,,Europe/London,0
AIR,AIRBLES,Airbles,0,55.78283,-3.99419,,,,,Europe/London,0
ALB,ALBRGHT,Albrighton,0,52.63794,-2.2689,,,,,Europe/London,0
ALD,ALDEDGE,Alderley Edge,2,53.30378,-2.2368,,,,,Europe/London,0
ALF,ALFRETN,Alfreton,1,53.10043,-1.3697,,,,,Europe/London,0
ALG,ALBURGH,ALDEBURGH-BUS 64,0,0,0,,,,,Europe/London,0
ALK,ASLCKTN,Aslockton,0,52.95155,-0.8981,,,,,Europe/London,0
ALM,ALNMOTH,Alnmouth,1,55.39278,-1.63664,,,,,Europe/London,0
ALN,ALTHORN,Althorne,0,51.64787,0.75248,,,,,Europe/London,0
ALO,ALLOA,Alloa,0,56.11779,-3.79006,,,,,Europe/London,0
ALP,ALTPE,Althorpe,0,53.5855,-0.73318,,,,,Europe/London,0
ALR,ALRESFD,Alresford (Essex),0,51.854,0.99744,,,,,Europe/London,0
ALT,ALTRNHM,Altrincham,2,53.38772,-2.34689,,,,,Europe/London,0
ALV,ALVCHRC,Alvechurch,0,52.34607,-1.96766,,,,,Europe/London,0
ALW,ALLENSW,Allens West,0,54.52462,-1.36112,,,,,Europe/London,0
ALX,ALXANDR,Alexandria,0,55.98508,-4.57748,,,,,Europe/London,0
AMB,AMBERGT,Ambergate,0,53.06052,-1.4807,,,,,Europe/London,0
AMF,AMMANFD,Ammanford,0,51.79597,-3.99673,,,,,Europe/London,0
AML,ACTONML,Acton Main Line,0,51.51718,-0.26676,,,,,Europe/London,0
AMM,MNCRAMM,ABRAHAM MOSSMTLK,1,0,0,,,,,Europe/London,0
AMO,MNCRAML,ASHTON MOSS MTLK,0,0,0,,,,,Europe/London,0
AMR,AMERSHM,Amersham,1,51.67421,-0.6076,,,,,Europe/London,0
AMT,ALDMSTN,Aldermaston,0,51.40196,-1.13742,,,,,Europe/London,0
AMY,AMLY,Amberley,0,50.89668,-0.54199,,,,,Europe/London,0
ANC,ANCASTR,Ancaster,0,52.98769,-0.53562,,,,,Europe/London,0
AND,ANDRSTN,Anderston,0,55.8599,-4.27098,,,,,Europe/London,0
ANF,LYNDHRD,Ashurst New Forest,0,50.88985,-1.52663,,,,,Europe/London,0
ANG,ANGMRNG,Angmering,2,50.81658,-0.48939,,,,,Europe/London,0
ANH,MNCRANC,ANCHORAGE MTLK,1,0,0,,,,,Europe/London,0
ANL,ANSL,Anniesland,1,55.88935,-4.32196,,,,,Europe/London,0
ANM,CATZANM,ANTRIM NI,0,0,0,,,,,Europe/London,0
ANN,ANNAN,Annan,0,54.98384,-3.26258,,,,,Europe/London,0
ANS,AINSDAL,Ainsdale,0,53.60203,-3.04265,,,,,Europe/London,0
ANZ,ANERLEY,Anerley,0,51.41215,-0.06589,,,,,Europe/London,0
AON,ALTON,Alton,0,51.15197,-0.96691,,,,,Europe/London,0
APB,APLYBDG,Appley Bridge,0,53.57867,-2.71925,,,,,Europe/London,0
APD,APDR,Appledore (Kent),0,51.03324,0.81634,,,,,Europe/London,0
APF,APPLEFD,Appleford,0,51.63964,-1.24214,,,,,Europe/London,0
APG,ASPLEYG,Aspley Guise,0,52.02124,-0.63233,,,,,Europe/London,0
APN,AIRP,Newcastle Airport Metro Station,0,55.03595,-1.71105,,,,,Europe/London,0
APP,APBY,Appleby,2,54.58035,-2.48669,,,,,Europe/London,0
APS,APSLEY,Apsley,0,51.73252,-0.46293,,,,,Europe/London,0
APY,APERLYB,Apperley Bridge,0,53.84175,-1.70583,,,,,Europe/London,0
ARA,ARMADLE,SKYE (ARMADALE),1,0,0,,,,,Europe/London,0
ARB,ARBROTH,Arbroath,1,56.55957,-2.58893,,,,,Europe/London,0
ARD,ARDGAY,Ardgay,0,57.88145,-4.36209,,,,,Europe/London,0
ARG,ARISAIG,Arisaig,0,56.91255,-5.83908,,,,,Europe/London,0
ARL,ARLSEY,Arlesey,0,52.02603,-0.26632,,,,,Europe/London,0
ARM,ARMDALE,Armadale (W Lothian),0,55.88571,-3.69541,,,,,Europe/London,0
ARN,ARNSIDE,Arnside,1,54.20273,-2.82824,,,,,Europe/London,0
ARP,ALVCRLP,Alvechurch - Red Lion PH,1,52.35286,-1.96096,,,,,Europe/London,0
ARR,ARRAM,Arram,0,53.88434,-0.42657,,,,,Europe/London,0
ART,ARCHRAT,Arrochar & Tarbet,0,56.20397,-4.72277,,,,,Europe/London,0
ARU,ARUNDEL,Arundel,1,50.84821,-0.54617,,,,,Europe/London,0
ARW,ARKW,ARKLOW      (CIE,0,0,0,,,,,Europe/Dublin,0
ASB,ARDRSSB,Ardrossan South Beach,1,55.64142,-4.80121,,,,,Europe/London,0
ASC,ASHCHRC,Ashchurch for Tewkesbury,0,51.9989,-2.10876,,,,,Europe/London,0
ASF,ASFIELD,Ashfield,0,55.88892,-4.24921,,,,,Europe/London,0
ASG,ALSAGER,Alsager,0,53.093,-2.29906,,,,,Europe/London,0
ASH,ASHH,Ash,2,51.2496,-0.71281,,,,,Europe/London,0
ASI,ASHFKI,ASHFORD INTL(CIV,1,0,0,,,,,Europe/London,0
ASK,ASKAM,Askam,0,54.18893,-3.20451,,,,,Europe/London,0
ASM,MNCRASM,AUDENSHAW MTLK,0,0,0,,,,,Europe/London,0
ASN,ADLESTN,Addlestone,0,51.37305,-0.48446,,,,,Europe/London,0
ASP,ASPTRIA,Aspatria,0,54.75896,-3.33187,,,,,Europe/London,0
ASS,ALNESS,Alness,0,57.69439,-4.24972,,,,,Europe/London,0
AST,ASTON,Aston,1,52.50423,-1.87193,,,,,Europe/London,0
ASY,ASHLEY,Ashley,0,53.35572,-2.34146,,,,,Europe/London,0
ATB,ATNBRO,Attenborough,0,52.90621,-1.23142,,,,,Europe/London,0
ATH,ATHRSTN,Atherstone,0,52.57897,-1.55281,,,,,Europe/London,0
ATL,ATTLBON,Attleborough,0,52.51455,1.02235,,,,,Europe/London,0
ATM,CATZATM,ATTYMON     (CIE,0,0,0,,,,,Europe/Dublin,0
ATN,ATHERTN,Atherton,0,53.52914,-2.47897,,,,,Europe/London,0
ATO,CATZATO,ATHLONE     (CIE,1,0,0,,,,,Europe/Dublin,0
ATR,CATZATR,ATHENRY     (CIE,1,0,0,,,,,Europe/Dublin,0
ATT,ATADALE,Attadale,0,57.39504,-5.45558,,,,,Europe/London,0
ATY,CATZATY,ATHY        (CIE,0,0,0,,,,,Europe/Dublin,0
AUD,AUDLEYE,Audley End,1,52.00444,0.20731,,,,,Europe/London,0
AUG,AGHTNPH,Aughton Park,0,53.55425,-2.89522,,,,,Europe/London,0
AUI,ARDLUI,Ardlui,0,56.30197,-4.72166,,,,,Europe/London,0
AUK,ACHILCK,Auchinleck,0,55.47027,-4.29535,,,,,Europe/London,0
AUL,MNCRALM,ASHTON U L MTLK,0,0,0,,,,,Europe/London,0
AUR,ABDO,Aberdour,0,56.05459,-3.30056,,,,,Europe/London,0
AUW,ASCTUWD,Ascott-under-Wychwood,0,51.86734,-1.56405,,,,,Europe/London,0
AVF,AVNCLFF,Avoncliff,0,51.33965,-2.28133,,,,,Europe/London,0
AVM,AVIEMRE,Aviemore,1,57.18851,-3.82887,,,,,Europe/London,0
AVN,AVONMTH,Avonmouth,1,51.50036,-2.69947,,,,,Europe/London,0
AVP,AYLSPWY,Aylesbury Vale Parkway,0,51.83116,-0.86018,,,,,Europe/London,0
AVY,ABDVY,Aberdovey,0,52.54396,-4.05707,,,,,Europe/London,0
AWK,ADWICK,Adwick,1,53.57232,-1.18036,,,,,Europe/London,0
AWL,MNCRAWM,ASHTON WEST MTLK,0,0,0,,,,,Europe/London,0
AWM,ASHWELC,Ashwell & Morden,0,52.03077,-0.10979,,,,,Europe/London,0
AWP,SCARALP,ALPAMARE WATER PARK,0,0,0,,,,,Europe/London,0
AWT,ARMTHWT,Armathwaite,0,54.80947,-2.77207,,,,,Europe/London,0
AXM,AXMNSTR,Axminster,1,50.77927,-3.00472,,,,,Europe/London,0
AXP,ALXPD,Alexandra Parade,0,55.86317,-4.21065,,,,,Europe/London,0
AYH,ALSHAM,Aylesham,0,51.22725,1.20945,,,,,Europe/London,0
AYL,AYLESFD,Aylesford,0,51.30132,0.46617,,,,,Europe/London,0
AYP,ALBNFCL,Albany Park,9,51.43545,0.12574,,,,,Europe/London,0
AYR,AYRR,Ayr,2,55.45814,-4.62588,,,,,Europe/London,0
AYS,AYLSBRY,Aylesbury,1,51.81389,-0.8151,,,,,Europe/London,0
AYW,ABRYSTH,Aberystwyth,0,52.41404,-4.08189,,,,,Europe/London,0
BAA,BRHM,Barnham,2,50.83091,-0.63968,,,,,Europe/London,0
BAB,BALCOMB,Balcombe,0,51.05552,-0.13693,,,,,Europe/London,0
BAC,BACHE,Bache,0,53.20879,-2.89167,,,,,Europe/London,0
BAD,BANSBUS,Banstead,9,51.32935,-0.21316,,,,,Europe/London,0
BAG,BAGSHOT,Bagshot,0,51.36437,-0.68866,,,,,Europe/London,0
BAH,BNKHALL,Bank Hall,0,53.43749,-2.98751,,,,,Europe/London,0
BAI,BLAIRHL,Blairhill,0,55.86645,-4.04329,,,,,Europe/London,0
BAJ,BGLAN,Baglan,0,51.61554,-3.81114,,,,,Europe/London,0
BAK,BATRSPK,Battersea Park,2,51.47696,-0.14753,,,,,Europe/London,0
BAL,BALHAM,Balham,2,51.44322,-0.15242,,,,,Europe/London,0
BAM,BAMFORD,Bamford,0,53.339,-1.68908,,,,,Europe/London,0
BAN,BNBR,Banbury,2,52.06031,-1.32813,,,,,Europe/London,0
BAO,CATZBAO,BALLYMOTE   (CIE,0,0,0,,,,,Europe/Dublin,0
BAR,BARELA,Bare Lane,0,54.07454,-2.83533,,,,,Europe/London,0
BAS,BEREALS,Bere Alston,0,50.48559,-4.20035,,,,,Europe/London,0
BAT,BATTLE,Battle,1,50.91292,0.4947,,,,,Europe/London,0
BAU,BRTHMBR,Barton-on-Humber,1,53.68892,-0.44344,,,,,Europe/London,0
BAV,BARWHVN,Barrow Haven,0,53.69742,-0.39296,,,,,Europe/London,0
BAW,BCKWATR,Blackwater,1,51.33158,-0.77674,,,,,Europe/London,0
BAX,CATZBAX,BALLINA     (CIE,0,0,0,,,,,Europe/Dublin,0
BAY,BAYFORD,Bayford,0,51.75772,-0.09561,,,,,Europe/London,0
BBG,BSHB,Bishopbriggs,0,55.90388,-4.22491,,,,,Europe/London,0
BBK,BILBROK,Bilbrook,0,52.62372,-2.18609,,,,,Europe/London,0
BBL,BATABAL,Bat & Ball,0,51.28976,0.19423,,,,,Europe/London,0
BBN,BLKB,Blackburn,1,53.74652,-2.47912,,,,,Europe/London,0
BBS,BRDS,Bordesley,0,52.47187,-1.87777,,,,,Europe/London,0
BBW,BERRYB,Berry Brow,0,53.62104,-1.79343,,,,,Europe/London,0
BBY,CATZBBY,BALLYBROPHY (CIE,1,0,0,,,,,Europe/Dublin,0
BCB,BRSCGHB,Burscough Bridge,1,53.60526,-2.84088,,,,,Europe/London,0
BCC,BECCLES,Beccles,1,52.45852,1.56949,,,,,Europe/London,0
BCE,BRACKNL,Bracknell,1,51.41309,-0.7517,,,,,Europe/London,0
BCF,BCNSFLD,Beaconsfield,1,51.61129,-0.64382,,,,,Europe/London,0
BCG,BCHGRV,Birchgrove,0,51.52156,-3.20185,,,,,Europe/London,0
BCH,BCNGNOS,Birchington-on-Sea,0,51.37749,1.30141,,,,,Europe/London,0
BCJ,BRSCGHJ,Burscough Junction,1,53.59752,-2.84061,,,,,Europe/London,0
BCK,BCKY,Buckley,0,53.16304,-3.05593,,,,,Europe/London,0
BCN,BRNCHTN,Branchton,0,55.9406,-4.80355,,,,,Europe/London,0
BCS,BCSTN,Bicester North,2,51.90348,-1.15038,,,,,Europe/London,0
BCU,BKNHRST,Brockenhurst,1,50.81684,-1.57353,,,,,Europe/London,0
BCV,BRUCGRV,Bruce Grove,0,51.59396,-0.06987,,,,,Europe/London,0
BCY,BROCKLY,Brockley,0,51.46465,-0.03754,,,,,Europe/London,0
BDA,BRUNDAL,Brundall,1,52.61948,1.4393,,,,,Europe/London,0
BDB,BRBM,Broadbottom,0,53.44097,-2.01652,,,,,Europe/London,0
BDC,BDICK,BRODICK,0,0,0,,,,,Europe/London,0
BDF,BODMNMF,BODMIN MOUNT FOLLY,0,0,0,,,,,Europe/London,0
BDG,BRIDGTN,Bridgeton,1,55.84896,-4.22606,,,,,Europe/London,0
BDH,BDHMNRD,Bedhampton,9,50.85396,-0.99583,,,,,Europe/London,0
BDI,BRADIN,Bradford Interchange,2,53.79108,-1.7496,,,,,Europe/London,0
BDK,BALDOCK,Baldock,0,51.99287,-0.18756,,,,,Europe/London,0
BDL,BKDLE,Birkdale,0,53.63405,-3.01445,,,,,Europe/London,0
BDM,BEDFDM,Bedford,2,52.13619,-0.47944,,,,,Europe/London,0
BDN,BRDING,Brading,0,50.67837,-1.13872,,,,,Europe/London,0
BDQ,BRADFS,Bradford Forster Square,2,53.79692,-1.75296,,,,,Europe/London,0
BDS,BONDST,BOND STREET CROSSRAIL,3,0,0,,,,,Europe/London,0
BDT,BRDLNGT,Bridlington,1,54.08413,-0.19872,,,,,Europe/London,0
BDW,BEDYN,Bedwyn,1,51.37964,-1.59879,,,,,Europe/London,0
BDY,BREDBRY,Bredbury,0,53.42315,-2.11049,,,,,Europe/London,0
BEA,BGOALAN,Bridge of Allan,0,56.15664,-3.95723,,,,,Europe/London,0
BEB,BEBNGTN,Bebington,0,53.35765,-3.00363,,,,,Europe/London,0
BEC,BCKNHMH,Beckenham Hill,0,51.42458,-0.01595,,,,,Europe/London,0
BEE,BESTON,Beeston,1,52.92075,-1.20766,,,,,Europe/London,0
BEF,BENFLET,Benfleet,0,51.54395,0.56171,,,,,Europe/London,0
BEG,BLTRNAB,Beltring,0,51.20471,0.4035,,,,,Europe/London,0
BEH,BEDWRTH,Bedworth,0,52.4793,-1.46739,,,,,Europe/London,0
BEL,BEAULY,Beauly,0,57.47828,-4.46987,,,,,Europe/London,0
BEM,BEMPTON,Bempton,0,54.12766,-0.18046,,,,,Europe/London,0
BEN,BNTHAM,Bentham,1,54.11552,-2.51068,,,,,Europe/London,0
BEP,BERMPRK,Bermuda Park,0,52.50143,-1.47218,,,,,Europe/London,0
BER,BEARLEY,Bearley,0,52.24441,-1.75026,,,,,Europe/London,0
BES,BESCRLA,Bescar Lane,0,53.62385,-2.91461,,,,,Europe/London,0
BET,BTHNLGR,Bethnal Green,0,51.52392,-0.05957,,,,,Europe/London,0
BEU,BLIEURD,Beaulieu Road,0,50.85505,-1.50475,,,,,Europe/London,0
BEV,BEVERLY,Beverley,0,53.84227,-0.42298,,,,,Europe/London,0
BEX,BEXHILL,Bexhill,1,50.84104,0.47702,,,,,Europe/London,0
BEY,BNRHYDN,Ben Rhydding,0,53.92571,-1.79743,,,,,Europe/London,0
BFA,BLFSTPT,BELFAST PORT,1,0,0,,,,,Europe/London,0
BFB,BELFBUS,BELFORD BUS,0,0,0,,,,,Europe/London,0
BFC,BLFSTCL,BELFAST LANYON PLACE,1,0,0,,,,,Europe/London,0
BFD,BNTFORD,Brentford,1,51.48755,-0.30965,,,,,Europe/London,0
BFE,BEREFRS,Bere Ferrers,0,50.45128,-4.18143,,,,,Europe/London,0
BFF,BLAENAU,Blaenau Ffestiniog,0,52.99455,-3.93859,,,,,Europe/London,0
BFN,BYFLANH,Byfleet & New Haw,1,51.3498,-0.48139,,,,,Europe/London,0
BFR,BLFR,London Blackfriars,3,51.51181,-0.10333,,,,,Europe/London,0
BGA,BRUNDLG,Brundall Gardens,0,52.62344,1.41842,,,,,Europe/London,0
BGD,BARGOED,Bargoed,1,51.69231,-3.22968,,,,,Europe/London,0
BGE,BROADGR,Broad Green,0,53.4065,-2.89348,,,,,Europe/London,0
BGG,BRGG,Brigg,0,53.54915,-0.48612,,,,,Europe/London,0
BGH,BRHOUSE,Brighouse,1,53.6982,-1.77944,,,,,Europe/London,0
BGI,BRGDDIE,Bargeddie,0,55.85129,-4.07381,,,,,Europe/London,0
BGK,BAGMTLK,BAGULEY MTLK,0,0,0,,,,,Europe/London,0
BGL,BUGLE,Bugle,0,50.40035,-4.7921,,,,,Europe/London,0
BGM,BELNGHM,Bellingham,0,51.43291,-0.01933,,,,,Europe/London,0
BGN,BRGEND,Bridgend,1,51.50697,-3.57528,,,,,Europe/London,0
BGS,BOGSTON,Bogston,0,55.93704,-4.7114,,,,,Europe/London,0
BHA,BOMOHAP,BOURNMTH AIR BUS,0,0,0,,,,,Europe/London,0
BHC,BALLOCH,Balloch,0,56.00293,-4.58349,,,,,Europe/London,0
BHD,BRITHDR,Brithdir,0,51.7103,-3.22872,,,,,Europe/London,0
BHG,BTHGATE,Bathgate,1,55.89715,-3.6361,,,,,Europe/London,0
BHI,BHAMINT,Birmingham International,3,52.45081,-1.72586,,,,,Europe/London,0
BHK,BHILLPK,Bush Hill Park,0,51.64152,-0.06922,,,,,Europe/London,0
BHM,BHAMNWS,Birmingham New Street,3,52.47782,-1.90021,,,,,Europe/London,0
BHN,CATZBHN,BALLYHAUNIS (CIE,0,0,0,,,,,Europe/Dublin,0
BHO,BLCHSRD,Blackhorse Road,1,51.58661,-0.04124,,,,,Europe/London,0
BHP,BLENHEM,BLENHEIM PALACE,0,0,0,,,,,Europe/London,0
BHR,BUILTHR,Builth Road,0,52.16932,-3.42703,,,,,Europe/London,0
BHS,BKHLS,Brockholes,0,53.59697,-1.76969,,,,,Europe/London,0
BIA,BSAUKLD,Bishop Auckland,0,54.6572,-1.67771,,,,,Europe/London,0
BIC,BILERCY,Billericay,1,51.62888,0.41863,,,,,Europe/London,0
BID,BDSTON,Bidston,1,53.40914,-3.07856,,,,,Europe/London,0
BIF,BAROW,Barrow-in-Furness,1,54.119,-3.22612,,,,,Europe/London,0
BIG,BILSHST,Billingshurst,1,51.0152,-0.4503,,,,,Europe/London,0
BIH,CATZBIH,BIRDHILL    (CIE,0,0,0,,,,,Europe/Dublin,0
BIK,BIRKBCK,Birkbeck,0,51.40389,-0.05574,,,,,Europe/London,0
BIL,BLNGHM,Billingham,0,54.60561,-1.27972,,,,,Europe/London,0
BIN,BINGHAM,Bingham,0,52.95419,-0.95154,,,,,Europe/London,0
BIO,BALISTN,Baillieston,0,55.8445,-4.1137,,,,,Europe/London,0
BIP,BSSN,Bishopstone,0,50.78014,0.08276,,,,,Europe/London,0
BIS,BSHPSFD,Bishops Stortford,2,51.86669,0.16489,,,,,Europe/London,0
BIT,BCSTRTN,Bicester Village,2,51.89302,-1.14876,,,,,Europe/London,0
BIW,BIGLSWD,Biggleswade,2,52.08468,-0.26119,,,,,Europe/London,0
BIY,BNGY,Bingley,0,53.84861,-1.83732,,,,,Europe/London,0
BKA,BOOKHAM,Bookham,0,51.28874,-0.38402,,,,,Europe/London,0
BKC,BRKNHDC,Birkenhead Central,1,53.38831,-3.02082,,,,,Europe/London,0
BKD,BLAKEDN,Blakedown,0,52.4064,-2.17687,,,,,Europe/London,0
BKG,BARKING,Barking,1,51.53949,0.0809,,,,,Europe/London,0
BKH,BLKHTH,Blackheath,1,51.4658,0.00887,,,,,Europe/London,0
BKI,BRKNIOM,BIRKENHEAD 12 QUAYS,1,0,0,,,,,Europe/London,0
BKJ,BCKNBUS,Beckenham Junction,9,51.41104,-0.02581,,,,,Europe/London,0
BKL,BICKLEY,Bickley,2,51.4001,0.04524,,,,,Europe/London,0
BKM,BERKHMD,Berkhamsted,0,51.76313,-0.56201,,,,,Europe/London,0
BKN,BRKNHDN,Birkenhead North,1,53.40443,-3.05753,,,,,Europe/London,0
BKO,BRKWOOD,Brookwood,2,51.30376,-0.63575,,,,,Europe/London,0
BKP,BRKNHDP,Birkenhead Park,0,53.39741,-3.0391,,,,,Europe/London,0
BKQ,HAMTSQ,Birkenhead Hamilton Square,2,53.39469,-3.01368,,,,,Europe/London,0
BKR,BLKRDGE,Blackridge,0,55.88425,-3.7508,,,,,Europe/London,0
BKS,BEKSBRN,Bekesbourne,0,51.26136,1.13671,,,,,Europe/London,0
BKT,BLKST,Blake Street,0,52.60488,-1.84491,,,,,Europe/London,0
BKV,BOWKERV,BOWKER VALE MTLK,1,0,0,,,,,Europe/London,0
BKW,BKSWELL,Berkswell,0,52.39588,-1.64284,,,,,Europe/London,0
BLA,BLARATH,Blair Atholl,0,56.76555,-3.85023,,,,,Europe/London,0
BLB,BTLSBDG,Battlesbridge,0,51.62483,0.56529,,,,,Europe/London,0
BLD,BAILDON,Baildon,0,53.85022,-1.75364,,,,,Europe/London,0
BLE,BRMLYSR,Bramley (West Yorks),0,53.80535,-1.63721,,,,,Europe/London,0
BLG,BLGRVE,Bellgrove,1,55.8567,-4.22437,,,,,Europe/London,0
BLH,BLSHL,Bellshill,1,55.81706,-4.0245,,,,,Europe/London,0
BLK,BLRD,Blackrod,0,53.59152,-2.56952,,,,,Europe/London,0
BLL,BRDNML,Bardon Mill,0,54.97449,-2.3465,,,,,Europe/London,0
BLM,BELM,Belmont,0,51.34381,-0.19886,,,,,Europe/London,0
BLN,BLNDLAC,Blundellsands & Crosby,0,53.48768,-3.03986,,,,,Europe/London,0
BLO,BLAYDON,Blaydon,0,54.96579,-1.71258,,,,,Europe/London,0
BLP,BELPER,Belper,1,53.02376,-1.48251,,,,,Europe/London,0
BLT,BLANTYR,Blantyre,0,55.79733,-4.08697,,,,,Europe/London,0
BLV,BLLVUE,Belle Vue,0,53.46237,-2.18051,,,,,Europe/London,0
BLW,BULWELL,Bulwell,0,52.9997,-1.19623,,,,,Europe/London,0
BLX,BLOXWCH,Bloxwich,0,52.6182,-2.01148,,,,,Europe/London,0
BLY,BLTCHLY,Bletchley,2,51.99533,-0.73632,,,,,Europe/London,0
BMA,CATZBMA,BALLYMENA NI,0,0,0,,,,,Europe/London,0
BMB,BMBRBDG,Bamber Bridge,0,53.72687,-2.66077,,,,,Europe/London,0
BMC,BRMCRSS,Bromley Cross,0,53.61404,-2.4109,,,,,Europe/London,0
BMD,BRIMSDN,Brimsdown,0,51.65558,-0.03082,,,,,Europe/London,0
BME,BROOME,Broome,1,52.42277,-2.88521,,,,,Europe/London,0
BMF,BRFT,Broomfleet,0,53.74021,-0.67183,,,,,Europe/London,0
BMG,BARMING,Barming,0,51.2849,0.47896,,,,,Europe/London,0
BMH,BOMO,Bournemouth,1,50.72727,-1.8645,,,,,Europe/London,0
BML,BMHL,Bramhall,0,53.36061,-2.16359,,,,,Europe/London,0
BMM,BLMMTLK,BARLOW M RD MTLK,0,0,0,,,,,Europe/London,0
BMN,BROMLYN,Bromley North,2,51.40833,0.01699,,,,,Europe/London,0
BMO,BHAMMRS,Birmingham Moor Street,2,52.47908,-1.89247,,,,,Europe/London,0
BMP,BRMPTNC,Brampton (Cumbria),0,54.93239,-2.70295,,,,,Europe/London,0
BMR,BRMBRK,Bromborough Rake,0,53.32991,-2.98947,,,,,Europe/London,0
BMS,BROMLYS,Bromley South,2,51.39998,0.01734,,,,,Europe/London,0
BMT,BDMNSTR,Bedminster,0,51.44009,-2.59415,,,,,Europe/London,0
BMV,BRMSGRV,Bromsgrove,2,52.3206,-2.04978,,,,,Europe/London,0
BMY,BMLY,Bramley (Hants),0,51.33029,-1.061,,,,,Europe/London,0
BNA,BAGE,Burnage,0,53.42117,-2.21568,,,,,Europe/London,0
BNC,BURNLYC,Burnley Central,1,53.79351,-2.24497,,,,,Europe/London,0
BND,BNDON,Brandon,0,52.45401,0.62473,,,,,Europe/London,0
BNE,BORNEND,Bourne End,1,51.57712,-0.71047,,,,,Europe/London,0
BNF,BRITFRY,Briton Ferry,0,51.6379,-3.81925,,,,,Europe/London,0
BNG,BANGOR,Bangor (Gwynedd),2,53.22228,-4.13588,,,,,Europe/London,0
BNH,BRNHRST,Barnehurst,1,51.46496,0.15965,,,,,Europe/London,0
BNI,BNSBDGE,Barnes Bridge,0,51.47201,-0.25263,,,,,Europe/London,0
BNK,BENMTLK,BENCHILL MTLK,0,0,0,,,,,Europe/London,0
BNL,BNHL,Barnhill,0,55.87749,-4.223,,,,,Europe/London,0
BNM,BNHAM,Burnham (Berks),0,51.52351,-0.64637,,,,,Europe/London,0
BNP,BRNSTPL,Barnstaple,0,51.07397,-4.06312,,,,,Europe/London,0
BNR,BRWHINS,Brockley Whins,0,54.95954,-1.46135,,,,,Europe/London,0
BNS,BARNES,Barnes,2,51.46709,-0.24216,,,,,Europe/London,0
BNT,BRNGTN,Brinnington,0,53.43212,-2.13512,,,,,Europe/London,0
BNU,CATZBNU,BANTEER     (CIE,0,0,0,,,,,Europe/Dublin,0
BNV,BANAVIE,Banavie,0,56.84331,-5.09543,,,,,Europe/London,0
BNW,BOOTLNS,Bootle New Strand,0,53.45339,-2.99475,,,,,Europe/London,0
BNY,BNSLY,Barnsley,2,53.5543,-1.47716,,,,,Europe/London,0
BOA,BRDFDOA,Bradford-on-Avon,1,51.34491,-2.25233,,,,,Europe/London,0
BOB,BSTBARN,BESSES O' TH' BARN MTLK,0,0,0,,,,,Europe/London,0
BOC,BOOTLE,Bootle (Cumbria),0,54.2913,-3.39386,,,,,Europe/London,0
BOD,BODMNPW,Bodmin Parkway,1,50.44586,-4.66293,,,,,Europe/London,0
BOE,BOTLEY,Botley,0,50.91645,-1.25924,,,,,Europe/London,0
BOG,BOGNORR,Bognor Regis,0,50.78656,-0.67618,,,,,Europe/London,0
BOH,BOSHAM,Bosham,0,50.84275,-0.84743,,,,,Europe/London,0
BOK,BRKLNDS,BROOKLANDS MTLK,0,0,0,,,,,Europe/London,0
BOM,BRMB,Bromborough,0,53.32185,-2.9869,,,,,Europe/London,0
BON,BOLTON,Bolton,2,53.57414,-2.42582,,,,,Europe/London,0
BOP,BOWESPK,Bowes Park,0,51.60701,-0.12058,,,,,Europe/London,0
BOQ,CATZBOQ,BOYLE       (CIE,0,0,0,,,,,Europe/Dublin,0
BOR,BODORGN,Bodorgan,0,53.2043,-4.418,,,,,Europe/London,0
BOT,BOOTLOR,Bootle Oriel Road,0,53.44662,-2.99573,,,,,Europe/London,0
BOW,BOWSTRT,BOW STREET,0,0,0,,,,,Europe/London,0
BPB,BLCKPB,Blackpool Pleasure Beach,0,53.78795,-3.05388,,,,,Europe/London,0
BPK,BRKMNPK,Brookmans Park,0,51.72106,-0.20455,,,,,Europe/London,0
BPL,BARLSOP,Barlaston Orchard Place,1,52.94186,-2.17159,,,,,Europe/London,0
BPN,BLCKPLN,Blackpool North,0,53.82191,-3.04927,,,,,Europe/London,0
BPO,CATZBPO,BRIDPORT BUS X51,0,0,0,,,,,Europe/London,0
BPS,BLCKS,Blackpool South,0,53.7987,-3.04894,,,,,Europe/London,0
BPT,BISHPTN,Bishopton,0,55.90226,-4.50049,,,,,Europe/London,0
BPW,BRSTPWY,Bristol Parkway,2,51.5138,-2.54216,,,,,Europe/London,0
BRA,BRORA,Brora,0,58.01295,-3.85228,,,,,Europe/London,0
BRC,BREICH,Breich,0,55.82731,-3.66813,,,,,Europe/London,0
BRD,MNCRBWY,BROADWAY MTLK,1,0,0,,,,,Europe/London,0
BRE,BRTWOOD,Brentwood,0,51.61361,0.29959,,,,,Europe/London,0
BRF,BRIERFL,Brierfield,0,53.82398,-2.23649,,,,,Europe/London,0
BRG,BORWGAW,Borough Green & Wrotham,1,51.29322,0.30625,,,,,Europe/London,0
BRH,BORTH,Borth,0,52.49103,-4.05018,,,,,Europe/London,0
BRI,BRSTLTM,Bristol Temple Meads,2,51.44914,-2.58132,,,,,Europe/London,0
BRK,BERWICK,Berwick (Sussex),2,50.84038,0.16602,,,,,Europe/London,0
BRL,BRRHL,Barrhill,0,55.097,-4.78178,,,,,Europe/London,0
BRM,BRMOUTH,Barmouth,0,52.72289,-4.0566,,,,,Europe/London,0
BRN,BSDN,Bearsden,0,55.91713,-4.33202,,,,,Europe/London,0
BRO,BOORCHY,Bridge of Orchy,0,56.51587,-4.76299,,,,,Europe/London,0
BRP,BRAMPTN,Brampton (Suffolk),0,52.39544,1.54381,,,,,Europe/London,0
BRR,BRHD,Barrhead,1,55.80375,-4.39728,,,,,Europe/London,0
BRS,BRLANDS,Berrylands,0,51.39905,-0.28071,,,,,Europe/London,0
BRT,BARLSTN,BARLASTON,0,0,0,,,,,Europe/London,0
BRU,BRUTON,Bruton,0,51.11164,-2.44707,,,,,Europe/London,0
BRV,BOURNVL,Bournville,0,52.42696,-1.92642,,,,,Europe/London,0
BRW,BNWK,Brunswick,0,53.38324,-2.97608,,,,,Europe/London,0
BRX,BRIXTON,Brixton,0,51.4633,-0.11418,,,,,Europe/London,0
BRY,BARRY,Barry,1,51.39678,-3.28498,,,,,Europe/London,0
BRZ,MNCRBRM,BURTON ROAD MTLK,0,0,0,,,,,Europe/London,0
BSB,BLEASBY,Bleasby,0,53.04137,-0.94369,,,,,Europe/London,0
BSC,BSCTSTA,Bescot Stadium,0,52.56309,-1.99111,,,,,Europe/London,0
BSD,BSTD,Bearsted,1,51.27582,0.57758,,,,,Europe/London,0
BSE,BSTEDMS,Bury St Edmunds,2,52.25376,0.71331,,,,,Europe/London,0
BSG,CATZBSG,BALLINASLOE (CIE,0,0,0,,,,,Europe/Dublin,0
BSH,BUSHEY,Bushey,1,51.64558,-0.38475,,,,,Europe/London,0
BSI,BALMOSS,Balmossie,0,56.47457,-2.83896,,,,,Europe/London,0
BSJ,BESJOHN,Bedford St Johns,0,52.12948,-0.4675,,,,,Europe/London,0
BSK,BSNGSEB,Basingstoke,9,51.26836,-1.08726,,,,,Europe/London,0
BSL,BEASDAL,Beasdale,0,56.89955,-5.7638,,,,,Europe/London,0
BSM,BRANKSM,Branksome,0,50.72696,-1.91976,,,,,Europe/London,0
BSN,BOSTON,Boston,1,52.97809,-0.031,,,,,Europe/London,0
BSO,BASILDN,Basildon,1,51.56811,0.45679,,,,,Europe/London,0
BSP,BRBYPK,Brondesbury Park,0,51.5407,-0.21013,,,,,Europe/London,0
BSR,BRSR,Broadstairs,0,51.36067,1.43356,,,,,Europe/London,0
BSS,BARASIE,Barassie,1,55.56106,-4.65114,,,,,Europe/London,0
BST,BSSNBUS,BISHOPSTONE HILL RISE,1,0,0,,,,,Europe/London,0
BSU,BRUSTAN,Brunstane,0,55.94251,-3.10099,,,,,Europe/London,0
BSV,BUKSHAW,Buckshaw Parkway,9,53.67334,-2.66083,,,,,Europe/London,0
BSW,BHAMSNH,Birmingham Snow Hill,2,52.48336,-1.89909,,,,,Europe/London,0
BSY,BRBY,Brondesbury,0,51.54517,-0.20231,,,,,Europe/London,0
BTB,BNTBY,Barnetby,1,53.57512,-0.40968,,,,,Europe/London,0
BTD,BLTNODR,Bolton-Upon-Dearne,0,53.51895,-1.31155,,,,,Europe/London,0
BTE,BITERNE,Bitterne,0,50.91822,-1.377,,,,,Europe/London,0
BTF,BOTESFD,Bottesford,0,52.94461,-0.79484,,,,,Europe/London,0
BTG,BGRN,Barnt Green,1,52.36109,-1.99247,,,,,Europe/London,0
BTH,BATHSPA,Bath Spa,2,51.37769,-2.35702,,,,,Europe/London,0
BTL,BATLEY,Batley,0,53.70994,-1.62295,,,,,Europe/London,0
BTN,BRGHTN,Brighton,2,50.829,-0.14128,,,,,Europe/London,0
BTO,BTCHBUS,Betchworth,9,51.24819,-0.26697,,,,,Europe/London,0
BTP,BRAINFP,Braintree Freeport,0,51.86942,0.56843,,,,,Europe/London,0
BTR,BRAINTR,Braintree,0,51.87539,0.55669,,,,,Europe/London,0
BTS,BISLND,Burntisland,0,56.05708,-3.2332,,,,,Europe/London,0
BTT,BTRSBY,Battersby,1,54.45768,-1.09297,,,,,Europe/London,0
BTY,BNTEY,Bentley (Hants),0,51.18123,-0.86813,,,,,Europe/London,0
BUA,BUDESTD,BUDE BUS,0,0,0,,,,,Europe/London,0
BUB,BURNLYB,Burnley Barracks,0,53.79088,-2.25809,,,,,Europe/London,0
BUC,BUCKNHM,Buckenham,0,52.59774,1.47033,,,,,Europe/London,0
BUD,BNSD,Burneside (Cumbria),0,54.35498,-2.76668,,,,,Europe/London,0
BUE,BURES,Bures,0,51.97116,0.76914,,,,,Europe/London,0
BUG,BURGESH,Burgess Hill,2,50.95366,-0.12741,,,,,Europe/London,0
BUH,BROUGH,Brough,1,53.72696,-0.57872,,,,,Europe/London,0
BUI,BRSDE,Burnside (Strathclyde),1,55.81693,-4.20239,,,,,Europe/London,0
BUJ,BRTJYC,Burton Joyce,0,52.98344,-1.04088,,,,,Europe/London,0
BUK,BKNELL,Bucknell,0,52.35738,-2.94738,,,,,Europe/London,0
BUL,BTLRSLA,Butlers Lane,0,52.59247,-1.83802,,,,,Europe/London,0
BUO,BURSLDN,Bursledon,0,50.88369,-1.30503,,,,,Europe/London,0
BUR,BURY,BURY MTLK,1,0,0,,,,,Europe/London,0
BUS,BUSBY,Busby,0,55.78034,-4.2622,,,,,Europe/London,0
BUT,BURTNOT,Burton-on-Trent,2,52.80582,-1.64246,,,,,Europe/London,0
BUU,BRNMONC,Burnham-on-Crouch,0,51.63366,0.81403,,,,,Europe/London,0
BUW,BURLYIW,Burley-in-Wharfedale,0,53.90815,-1.75337,,,,,Europe/London,0
BUX,BUXTON,Buxton,0,53.26072,-1.91286,,,,,Europe/London,0
BUY,BRLEYPK,Burley Park,0,53.81203,-1.57777,,,,,Europe/London,0
BVD,BELVEDR,Belvedere,0,51.49212,0.15229,,,,,Europe/London,0
BWB,BOWBRKH,Bow Brickhill,0,52.0043,-0.69608,,,,,Europe/London,0
BWD,BIRCHWD,Birchwood,0,53.41272,-2.52531,,,,,Europe/London,0
BWG,BOWLING,Bowling,0,55.93108,-4.49384,,,,,Europe/London,0
BWK,BRWCKUT,Berwick-upon-Tweed,2,55.77434,-2.01097,,,,,Europe/London,0
BWN,BLOXN,Bloxwich North,0,52.62544,-2.01768,,,,,Europe/London,0
BWO,BCWD,Bricket Wood,0,51.70543,-0.35911,,,,,Europe/London,0
BWS,BAROWOS,Barrow upon Soar,0,52.74934,-1.14484,,,,,Europe/London,0
BWT,BRDGWTR,Bridgwater,2,51.12786,-2.99041,,,,,Europe/London,0
BWY,CATZBWY,BROADWAY,0,0,0,,,,,Europe/London,0
BXB,BROXBRN,Broxbourne,1,51.74691,-0.01109,,,,,Europe/London,0
BXD,BXTD,Buxted,0,50.99001,0.13144,,,,,Europe/London,0
BXH,BXLYHTH,Bexleyheath,0,51.4635,0.13373,,,,,Europe/London,0
BXW,BOXHAWH,Box Hill & Westhumble,0,51.25401,-0.32849,,,,,Europe/London,0
BXX,BOXHBUS,Boxhill - Burford Bridge Hotel,1,51.25416,-0.32298,,,,,Europe/London,0
BXY,BEXLEY,Bexley,0,51.44022,0.1479,,,,,Europe/London,0
BYA,BRNYARM,Berney Arms,0,52.58979,1.63038,,,,,Europe/London,0
BYB,BLYBDGE,Blythe Bridge,1,52.96814,-2.06696,,,,,Europe/London,0
BYC,BETSYCD,Betws-y-Coed,1,53.09207,-3.80086,,,,,Europe/London,0
BYD,BARRYDK,Barry Docks,0,51.40244,-3.2607,,,,,Europe/London,0
BYE,BYNEA,Bynea,0,51.67203,-4.09888,,,,,Europe/London,0
BYF,BRFRY,Broughty Ferry,0,56.46716,-2.87315,,,,,Europe/London,0
BYI,BARRYIS,Barry Island,0,51.39241,-3.27336,,,,,Europe/London,0
BYK,BTLYSY,Bentley (S Yorks),0,53.54394,-1.15095,,,,,Europe/London,0
BYL,BRRYLNK,Barry Links,0,56.49315,-2.74544,,,,,Europe/London,0
BYM,BURNMR,Burnley Manchester Road,1,53.78497,-2.24887,,,,,Europe/London,0
BYN,BRYN,Bryn,0,53.49987,-2.64721,,,,,Europe/London,0
BYS,BRYSTNS,Braystones,0,54.43936,-3.54183,,,,,Europe/London,0
BZY,BRAY,BRAY        (CIE,1,0,0,,,,,Europe/Dublin,0
CAA,COVAREN,Coventry Arena,0,52.44773,-1.49412,,,,,Europe/London,0
CAC,CLDRCRX,Caldercruix,0,55.88794,-3.88771,,,,,Europe/London,0
CAD,CADOXTN,Cadoxton,0,51.41228,-3.2489,,,,,Europe/London,0
CAG,CARRBDG,Carrbridge,0,57.2795,-3.8282,,,,,Europe/London,0
CAH,CATZCAH,CAHIR       (CIE,0,0,0,,,,,Europe/Dublin,0
CAK,CARK,Cark,0,54.17795,-2.97406,,,,,Europe/London,0
CAM,CMBLEY,Camberley,0,51.33633,-0.74427,,,,,Europe/London,0
CAN,CNST,Carnoustie,1,56.50056,-2.7066,,,,,Europe/London,0
CAO,CNCK,Cannock,0,52.68616,-2.02215,,,,,Europe/London,0
CAR,CARLILE,Carlisle,3,54.89065,-2.93319,,,,,Europe/London,0
CAS,CSTL,Castleton (Manchester),0,53.59185,-2.17823,,,,,Europe/London,0
CAT,CATERHM,Caterham,0,51.28214,-0.07831,,,,,Europe/London,0
CAU,CAUSLND,Causeland,0,50.40569,-4.46645,,,,,Europe/London,0
CAW,CATZCAW,CARLOW CIE,0,0,0,,,,,Europe/London,0
CAY,CNTY,Carntyne,0,55.85487,-4.17857,,,,,Europe/London,0
CBB,CARBISB,Carbis Bay,0,50.19705,-5.46326,,,,,Europe/London,0
CBC,COATBDC,Coatbridge Central,2,55.86251,-4.0319,,,,,Europe/London,0
CBD,CONONBR,Conon Bridge,0,57.56175,-4.44041,,,,,Europe/London,0
CBE,CNTBE,Canterbury East,1,51.27427,1.07597,,,,,Europe/London,0
CBG,CAMBDGE,Cambridge,2,52.19407,0.13746,,,,,Europe/London,0
CBH,CAMHTH,Cambridge Heath (London),0,51.53197,-0.05728,,,,,Europe/London,0
CBK,CBRK,Cranbrook,0,50.75009,-3.42042,,,,,Europe/London,0
CBL,CMBSLNG,Cambuslang,1,55.81961,-4.17301,,,,,Europe/London,0
CBN,CBORNE,Camborne,0,50.21044,-5.29741,,,,,Europe/London,0
CBP,CBARPAR,Castle Bar Park,0,51.52293,-0.33155,,,,,Europe/London,0
CBR,COKSBDG,Cooksbridge,0,50.90376,-0.0092,,,,,Europe/London,0
CBS,COATBDS,Coatbridge Sunnyside,0,55.86683,-4.02829,,,,,Europe/London,0
CBT,CAMPBLT,CAMPBELTOWN,0,0,0,,,,,Europe/London,0
CBW,CNTBW,Canterbury West,1,51.28427,1.0753,,,,,Europe/London,0
CBY,CHBURY,Charlbury,0,51.87243,-1.48969,,,,,Europe/London,0
CBZ,PBROCOR,CORBY PBORO BUS,0,0,0,,,,,Europe/London,0
CCB,CRDFBUS,CARDIFF CENTRAL BUS STN,1,0,0,,,,,Europe/London,0
CCC,CRICCTH,Criccieth,0,52.91841,-4.23751,,,,,Europe/London,0
CCH,CHCHSTR,Chichester,2,50.83205,-0.78175,,,,,Europe/London,0
CCK,CATZ012,CHINNOR RAIL,0,0,0,,,,,Europe/London,0
CCN,CATZCCN,CASTLECONNI (CIE,0,0,0,,,,,Europe/Dublin,0
CCR,CATZCCR,CIRENCESTER,0,0,0,,,,,Europe/London,0
CCT,CCRT,Cathcart,1,55.81767,-4.26054,,,,,Europe/London,0
CDB,CARDFBR,Cardiff Bay,0,51.46711,-3.1664,,,,,Europe/London,0
CDD,CDND,Cardenden,0,56.14126,-3.26164,,,,,Europe/London,0
CDF,CRDFCEN,Cardiff Central,2,51.47603,-3.1793,,,,,Europe/London,0
CDI,CREDITN,Crediton,1,50.7833,-3.64678,,,,,Europe/London,0
CDN,COLSTWN,Coulsdon Town,1,51.32204,-0.13446,,,,,Europe/London,0
CDO,CDNL,Cardonald,0,55.85257,-4.34069,,,,,Europe/London,0
CDQ,CARDFQS,Cardiff Queen Street,1,51.48196,-3.17018,,,,,Europe/London,0
CDR,CDRS,Cardross,0,55.96038,-4.65307,,,,,Europe/London,0
CDS,COLSDNS,Coulsdon South,0,51.31584,-0.13789,,,,,Europe/London,0
CDT,CDCOT,Caldicot,0,51.58479,-2.76057,,,,,Europe/London,0
CDU,DURSLEY,Cam & Dursley,0,51.71762,-2.35908,,,,,Europe/London,0
CDY,CRTSDYK,Cartsdyke,0,55.94221,-4.73159,,,,,Europe/London,0
CEA,CLELAND,Cleland,0,55.80465,-3.91024,,,,,Europe/London,0
CED,CHDNGTN,Cheddington,0,51.85792,-0.66215,,,,,Europe/London,0
CEF,CHEF,Chapel-en-le-Frith,0,53.31223,-1.91876,,,,,Europe/London,0
CEH,COLESHL,Coleshill Parkway,1,52.51653,-1.70818,,,,,Europe/London,0
CEI,CATZCEI,COLERAINE NI,1,0,0,,,,,Europe/London,0
CEL,CHELFD,Chelford,0,53.27031,-2.28058,,,,,Europe/London,0
CEM,MNCRCEM,CENTRL PARK MTLK,1,0,0,,,,,Europe/London,0
CES,CRESING,Cressing,0,51.85234,0.57796,,,,,Europe/London,0
CET,CLCHRTN,Colchester Town,0,51.88646,0.90476,,,,,Europe/London,0
CEY,CONONLY,Cononley,0,53.91757,-2.01207,,,,,Europe/London,0
CFB,CATFBDG,Catford Bridge,2,51.44474,-0.02479,,,,,Europe/London,0
CFC,SWNACFC,CORFE CASTLE,0,0,0,,,,,Europe/London,0
CFD,CASTLFD,Castleford,1,53.72408,-1.35465,,,,,Europe/London,0
CFF,CFFT,Croftfoot,0,55.81826,-4.22832,,,,,Europe/London,0
CFH,CHADHDD,Chafford Hundred,1,51.48556,0.28745,,,,,Europe/London,0
CFL,CFLATTS,Crossflatts,0,53.85847,-1.84489,,,,,Europe/London,0
CFN,CLFDOWN,Clifton Down,0,51.46454,-2.61174,,,,,Europe/London,0
CFO,CHLFNAL,Chalfont & Latimer,1,51.66811,-0.56053,,,,,Europe/London,0
CFR,CSFD,Chandlers Ford,0,50.98368,-1.38517,,,,,Europe/London,0
CFT,CFPK,Crofton Park,0,51.45519,-0.0365,,,,,Europe/London,0
CGD,CRGDRN,Craigendoran,0,55.9948,-4.71124,,,,,Europe/London,0
CGM,CTTGHM,Cottingham,0,53.78165,-0.40643,,,,,Europe/London,0
CGN,COGAN,Cogan,1,51.44599,-3.18909,,,,,Europe/London,0
CGT,DLTNCGT,CATTERICK GARRISON BUS,0,0,0,,,,,Europe/London,0
CGW,CAERGWL,Caergwrle,0,53.10786,-3.03291,,,,,Europe/London,0
CHB,MNCRCHB,CLAYTON HAL MTLK,0,0,0,,,,,Europe/London,0
CHC,CHRNGXG,Charing Cross (Glasgow),0,55.86468,-4.26982,,,,,Europe/London,0
CHD,CHFD,Chesterfield,2,53.23822,-1.42012,,,,,Europe/London,0
CHE,CHEAM,Cheam,0,51.35548,-0.21417,,,,,Europe/London,0
CHF,CHFN,Church Fenton,1,53.8266,-1.22759,,,,,Europe/London,0
CHG,CRNG,Charing (Kent),0,51.2081,0.79033,,,,,Europe/London,0
CHH,CHRSBUS,Christs Hospital,9,51.05069,-0.36356,,,,,Europe/London,0
CHI,CHINGFD,Chingford,1,51.63309,0.0099,,,,,Europe/London,0
CHJ,CATZCHJ,CHARLEVILLE (CIE,0,0,0,,,,,Europe/Dublin,0
CHK,CHISWCK,Chiswick,0,51.48114,-0.26784,,,,,Europe/London,0
CHL,CHLWTH,Chilworth,0,51.21521,-0.52482,,,,,Europe/London,0
CHM,CHLMSFD,Chelmsford,2,51.73637,0.46857,,,,,Europe/London,0
CHN,CHESHNT,Cheshunt,1,51.70288,-0.02396,,,,,Europe/London,0
CHO,CHOLSEY,Cholsey,1,51.5702,-1.15802,,,,,Europe/London,0
CHP,CHSD,Chipstead,0,51.30928,-0.1695,,,,,Europe/London,0
CHR,CHRISTC,Christchurch,0,50.73821,-1.78455,,,,,Europe/London,0
CHS,CHUSTON,CHURSTON,0,0,0,,,,,Europe/London,0
CHT,CHHL,Chathill,0,55.53673,-1.70638,,,,,Europe/London,0
CHU,CHDH,Cheadle Hulme,1,53.37593,-2.1883,,,,,Europe/London,0
CHW,CHLKWEL,Chalkwell,0,51.53872,0.67059,,,,,Europe/London,0
CHX,CHRX,London Charing Cross,3,51.50803,-0.1248,,,,,Europe/London,0
CHY,CHTSEY,Chertsey,0,51.38707,-0.50932,,,,,Europe/London,0
CIL,CLMN,Chilham,0,51.24461,0.9759,,,,,Europe/London,0
CIM,CILMERY,Cilmeri,0,52.15053,-3.45654,,,,,Europe/London,0
CIR,CLDNNRB,Caledonian Road & Barnsbury,0,51.54304,-0.11673,,,,,Europe/London,0
CIT,CHSLHRS,Chislehurst,1,51.40556,0.05742,,,,,Europe/London,0
CKA,CATZCKA,CARRICK-ON-SHANNON (CIE),0,0,0,,,,,Europe/Dublin,0
CKH,CKHL,Corkerhill,0,55.8375,-4.33429,,,,,Europe/London,0
CKL,CRCK,Corkickle,0,54.54168,-3.58216,,,,,Europe/London,0
CKN,CRKRN,Crewkerne,0,50.87354,-2.7785,,,,,Europe/London,0
CKS,CLRKSTN,Clarkston,0,55.78935,-4.27564,,,,,Europe/London,0
CKT,CROKSTN,Crookston,0,55.84231,-4.36467,,,,,Europe/London,0
CKU,CARICOS,CARRICK-ON-SUIR (CIE),0,0,0,,,,,Europe/Dublin,0
CKY,CRSKEYS,Crosskeys,0,51.6209,-3.12617,,,,,Europe/London,0
CLA,CLANDON,Clandon,1,51.26401,-0.50277,,,,,Europe/London,0
CLB,CATZCLB,CASTLEBAR   (CIE,0,0,0,,,,,Europe/Dublin,0
CLC,CCARY,Castle Cary,2,51.09981,-2.52279,,,,,Europe/London,0
CLD,CHLSFLD,Chelsfield,1,51.35626,0.10907,,,,,Europe/London,0
CLE,CLTHRPS,Cleethorpes,0,53.56191,-0.02922,,,,,Europe/London,0
CLG,CLYGATE,Claygate,0,51.36121,-0.34825,,,,,Europe/London,0
CLH,CLITHRO,Clitheroe,0,53.87347,-2.39434,,,,,Europe/London,0
CLI,CLTN,Clifton (Manchester),0,53.52249,-2.31475,,,,,Europe/London,0
CLJ,CLPHMJ1,Clapham Junction,9,51.46419,-0.17028,,,,,Europe/London,0
CLK,CLOCKHS,Clock House,1,51.40859,-0.04066,,,,,Europe/London,0
CLL,CTNG,Collington,0,50.83929,0.45786,,,,,Europe/London,0
CLM,CLHM,Collingham,0,53.14409,-0.75039,,,,,Europe/London,0
CLN,CHPLTWN,Chapeltown,0,53.46234,-1.46628,,,,,Europe/London,0
CLP,CLPHHS,Clapham High Street,0,51.46548,-0.13252,,,,,Europe/London,0
CLQ,CATZCLQ,CLARA       (CIE,0,0,0,,,,,Europe/Dublin,0
CLR,CLARBRD,Clarbeston Road,1,51.85167,-4.88355,,,,,Europe/London,0
CLS,CLST,Chester-le-Street,0,54.85459,-1.57802,,,,,Europe/London,0
CLT,CLACTON,Clacton-on-Sea,0,51.794,1.15409,,,,,Europe/London,0
CLU,CRLK,Carluke,0,55.73126,-3.84892,,,,,Europe/London,0
CLV,CLAVRDN,Claverdon,0,52.27709,-1.69656,,,,,Europe/London,0
CLW,CHRW,Chorleywood,0,51.65425,-0.51832,,,,,Europe/London,0
CLX,CLONMEL,CLONMEL     (CIE,0,0,0,,,,,Europe/Dublin,0
CLY,CHNLY,Chinley,2,53.34029,-1.94394,,,,,Europe/London,0
CLZ,CATZCLZ,CLOUGHJORDN (CIE,0,0,0,,,,,Europe/Dublin,0
CMB,CAMBNTH,Cambridge North,2,52.22448,0.15848,,,,,Europe/London,0
CMD,CMDNRD,Camden Road,2,51.54179,-0.1387,,,,,Europe/London,0
CME,COMBE,Combe (Oxon),0,51.83259,-1.39407,,,,,Europe/London,0
CMF,CROMFD,Cromford,0,53.11293,-1.54916,,,,,Europe/London,0
CMH,CMBH,Cwmbach,0,51.70193,-3.41372,,,,,Europe/London,0
CMI,CATZCMI,CLAREMORRIS (CIE,0,0,0,,,,,Europe/Dublin,0
CMK,CSAMTLK,CROSSACRES MTLK,0,0,0,,,,,Europe/London,0
CML,CARMYLE,Carmyle,0,55.83434,-4.15818,,,,,Europe/London,0
CMN,CMTHN,Carmarthen,2,51.85335,-4.30596,,,,,Europe/London,0
CMO,CAMELON,Camelon,0,56.00609,-3.81761,,,,,Europe/London,0
CMR,CMER,Cromer,1,52.93008,1.29282,,,,,Europe/London,0
CMY,CRSMYLF,Crossmyloof,0,55.83395,-4.28432,,,,,Europe/London,0
CNE,COLNE,Colne,0,53.85474,-2.18186,,,,,Europe/London,0
CNF,CRNF,Carnforth,1,54.12968,-2.77123,,,,,Europe/London,0
CNG,CONGLTN,Congleton,1,53.15785,-2.19258,,,,,Europe/London,0
CNK,MNCRCHM,CHORLTON MTLK,1,0,0,,,,,Europe/London,0
CNL,CANLEY,Canley,0,52.39924,-1.54757,,,,,Europe/London,0
CNM,CHLTNHM,Cheltenham Spa,2,51.8974,-2.09962,,,,,Europe/London,0
CNN,CNNB,Canonbury,1,51.54873,-0.09219,,,,,Europe/London,0
CNO,CHETNOL,Chetnole,0,50.86636,-2.57293,,,,,Europe/London,0
CNP,BRKNCPK,Conway Park,0,53.39336,-3.02267,,,,,Europe/London,0
CNR,CRNLRCH,Crianlarich,1,56.39048,-4.61843,,,,,Europe/London,0
CNS,CONBRGH,Conisbrough,0,53.48931,-1.23433,,,,,Europe/London,0
CNW,CONWY,Conwy,0,53.2801,-3.83052,,,,,Europe/London,0
CNY,CNTLEY,Cantley,0,52.57875,1.51341,,,,,Europe/London,0
COA,COATDYK,Coatdyke,0,55.86434,-4.00498,,,,,Europe/London,0
COB,CODNBCH,Cooden Beach,0,50.83337,0.42686,,,,,Europe/London,0
COC,COWDBUS,COWDEN CROSROADS,1,0,0,,,,,Europe/London,0
COE,COOMBE,Coombe Junction Halt (Rail Station),0,50.44592,-4.48185,,,,,Europe/London,0
COH,CBGH,Crowborough,0,51.04638,0.18801,,,,,Europe/London,0
COI,CROSSHL,Crosshill,0,55.83329,-4.25681,,,,,Europe/London,0
COK,CORK,CORK CITY   (CIE,1,0,0,,,,,Europe/Dublin,0
COL,CLCHSTR,Colchester,2,51.90071,0.8926,,,,,Europe/London,0
COM,COMONDL,Commondale,0,54.48127,-0.97515,,,,,Europe/London,0
CON,CONNELF,Connel Ferry,0,56.45235,-5.38544,,,,,Europe/London,0
COO,COOKHAM,Cookham,0,51.55746,-0.72208,,,,,Europe/London,0
COP,COPLSTN,Copplestone,0,50.81447,-3.75157,,,,,Europe/London,0
COQ,CATZCOQ,COBH        (CIE,0,0,0,,,,,Europe/Dublin,0
COR,CORBY,Corby,0,52.48885,-0.68834,,,,,Europe/London,0
COS,COSFORD,Cosford,1,52.64483,-2.30027,,,,,Europe/London,0
COT,COTNGLY,Cottingley,0,53.76782,-1.58771,,,,,Europe/London,0
COU,CATZCOU,COLLOONEY   (CIE,0,0,0,,,,,Europe/Dublin,0
COV,COVNNY,Coventry,9,52.40081,-1.51346,,,,,Europe/London,0
COW,CWDNBTH,Cowdenbeath,0,56.11209,-3.34319,,,,,Europe/London,0
COY,CORYTON,Coryton,0,51.52044,-3.23182,,,,,Europe/London,0
COZ,MNCRCBK,CORNBROOK MTLK,1,0,0,,,,,Europe/London,0
CPA,CORPACH,Corpach,0,56.84283,-5.12196,,,,,Europe/London,0
CPG,CHNOBUS,CHIPPING NORTON BUS,0,0,0,,,,,Europe/London,0
CPH,CRPHLY,Caerphilly,1,51.57158,-3.21848,,,,,Europe/London,0
CPK,CRPNDPK,Carpenders Park,0,51.62835,-0.38594,,,,,Europe/London,0
CPM,CHIPNHM,Chippenham,1,51.46249,-2.11539,,,,,Europe/London,0
CPN,CHAPLTN,Chapelton (Devon),0,51.01654,-4.02472,,,,,Europe/London,0
CPT,CLAPTON,Clapton,1,51.56164,-0.05702,,,,,Europe/London,0
CPU,CPNHRST,Capenhurst,0,53.26017,-2.94228,,,,,Europe/London,0
CPW,CHEPSTW,Chepstow,0,51.64018,-2.67191,,,,,Europe/London,0
CPY,CLPM,Clapham (N Yorks),0,54.10539,-2.41038,,,,,Europe/London,0
CRA,CRADLYH,Cradley Heath,0,52.46965,-2.09049,,,,,Europe/London,0
CRB,CRBG,Corbridge,0,54.96626,-2.0184,,,,,Europe/London,0
CRC,CHLTRAC,CHELT RACES BUS,0,0,0,,,,,Europe/London,0
CRD,CHSRD,Chester Road,0,52.53565,-1.83248,,,,,Europe/London,0
CRE,CREW998,Crewe,9,53.08962,-2.43297,,,,,Europe/London,0
CRF,CARFIN,Carfin,0,55.80734,-3.95625,,,,,Europe/London,0
CRG,CSGT,Cross Gates,0,53.80491,-1.45158,,,,,Europe/London,0
CRH,CROUCHH,Crouch Hill,0,51.5713,-0.11715,,,,,Europe/London,0
CRI,CRKLWD,Cricklewood,2,51.55845,-0.21268,,,,,Europe/London,0
CRJ,CRUMPSL,CRUMPSALL MTLK,0,0,0,,,,,Europe/London,0
CRK,CHIRK,Chirk,0,52.93309,-3.06564,,,,,Europe/London,0
CRL,CHORLEY,Chorley,0,53.65254,-2.62684,,,,,Europe/London,0
CRM,CRMLNGT,Cramlington,0,55.08777,-1.59859,,,,,Europe/London,0
CRN,CRWTHRN,Crowthorne,0,51.36673,-0.81927,,,,,Europe/London,0
CRO,CROY,Croy,1,55.95568,-4.03598,,,,,Europe/London,0
CRP,CNRYNP,CAIRNRYAN,1,0,0,,,,,Europe/London,0
CRQ,MNCRCRM,CEMETERY RD MTLK,0,0,0,,,,,Europe/London,0
CRR,CORROUR,Corrour,0,56.76021,-4.6906,,,,,Europe/London,0
CRS,CRSTRS,Carstairs,3,55.69105,-3.66847,,,,,Europe/London,0
CRT,CHARTHM,Chartham,0,51.25727,1.01804,,,,,Europe/London,0
CRU,CRGURE,CRAIGNURE,0,0,0,,,,,Europe/London,0
CRV,CRAVENA,Craven Arms,2,52.44254,-2.83742,,,,,Europe/London,0
CRW,CRAWLEY,Crawley,2,51.11221,-0.18667,,,,,Europe/London,0
CRY,CRFD,Crayford,1,51.44828,0.17894,,,,,Europe/London,0
CRZ,CATZCRZ,CRICKLADE BUS,0,0,0,,,,,Europe/London,0
CSA,COSHAM,Cosham,1,50.84192,-1.06733,,,,,Europe/London,0
CSB,CRSHLTB,Carshalton Beeches,2,51.35741,-0.1698,,,,,Europe/London,0
CSD,CBHMSDA,Cobham & Stoke d'Abernon,0,51.3181,-0.38935,,,,,Europe/London,0
CSE,CATZCSE,CASTLEREA   (CIE,0,0,0,,,,,Europe/Dublin,0
CSG,CRSNGTN,Cressington,0,53.35875,-2.912,,,,,Europe/London,0
CSH,CRSHLTN,Carshalton,2,51.36845,-0.16637,,,,,Europe/London,0
CSK,CALSTCK,Calstock,0,50.4978,-4.20899,,,,,Europe/London,0
CSL,CODSALL,Codsall,1,52.62729,-2.20176,,,,,Europe/London,0
CSM,CTNM,Castleton Moor,0,54.46714,-0.94665,,,,,Europe/London,0
CSN,CHSSN,Chessington North,0,51.36404,-0.3007,,,,,Europe/London,0
CSO,CROT,Croston,0,53.66756,-2.77775,,,,,Europe/London,0
CSR,CHASNRD,Chassen Road,0,53.44616,-2.36823,,,,,Europe/London,0
CSS,CHSSS,Chessington South,0,51.35655,-0.30816,,,,,Europe/London,0
CST,CANONST,London Cannon Street,3,51.51138,-0.09029,,,,,Europe/London,0
CSW,CHSW,Chestfield & Swalecliffe,0,51.36024,1.06693,,,,,Europe/London,0
CSY,COSELEY,Coseley,0,52.54508,-2.08578,,,,,Europe/London,0
CTB,CSBY,CASTLEBAY,0,0,0,,,,,Europe/London,0
CTE,CHTLRT,Chatelherault,0,55.76522,-4.00467,,,,,Europe/London,0
CTF,CATFORD,Catford,2,51.44441,-0.02632,,,,,Europe/London,0
CTH,CHDWLHT,Chadwell Heath,1,51.56804,0.12896,,,,,Europe/London,0
CTK,CTMSLNK,City Thameslink,0,51.51394,-0.10359,,,,,Europe/London,0
CTL,CATTAL,Cattal,0,53.99744,-1.32053,,,,,Europe/London,0
CTM,CHATHAM,Chatham,1,51.38038,0.52115,,,,,Europe/London,0
CTN,CRLN,Charlton,1,51.48681,0.03126,,,,,Europe/London,0
CTO,CRTN,Carlton,1,52.96509,-1.07865,,,,,Europe/London,0
CTR,CHST,Chester,2,53.1967,-2.87959,,,,,Europe/London,0
CTT,CSTR,Church Stretton,0,52.53742,-2.80369,,,,,Europe/London,0
CTW,CHOS,Church & Oswaldtwistle,0,53.75052,-2.39121,,,,,Europe/London,0
CUA,CULRAIN,Culrain,0,57.91951,-4.40427,,,,,Europe/London,0
CUB,CMBRNLD,Cumbernauld,1,55.94203,-3.98033,,,,,Europe/London,0
CUD,CUDNGTN,Cuddington,0,53.23992,-2.59931,,,,,Europe/London,0
CUF,CUFFLEY,Cuffley,0,51.70872,-0.10978,,,,,Europe/London,0
CUH,CURRIEH,Curriehill,0,55.90057,-3.31875,,,,,Europe/London,0
CUL,CUMBRAE,CUMBRAE,0,0,0,,,,,Europe/London,0
CUM,CULHAM,Culham,0,51.65379,-1.23651,,,,,Europe/London,0
CUP,CUPAR,Cupar,0,56.31699,-3.00876,,,,,Europe/London,0
CUS,CUSTMHS,CUSTOM HOUSE CROSSRAIL,0,0,0,,,,,Europe/London,0
CUW,CLYNDRW,Clunderwen,0,51.84054,-4.73184,,,,,Europe/London,0
CUX,CXTN,Cuxton,0,51.37393,0.46171,,,,,Europe/London,0
CVG,CHBUVIL,CHARLBURY VILLAGE,1,0,0,,,,,Europe/London,0
CWB,CBAY,Colwyn Bay,0,53.29636,-3.72542,,,,,Europe/London,0
CWC,CHPWKSC,Chappel & Wakes Colne,1,51.92591,0.7585,,,,,Europe/London,0
CWD,CRWLL,Creswell (Derbys),0,53.26411,-1.21639,,,,,Europe/London,0
CWE,CROWLE,Crowle,0,53.58973,-0.81736,,,,,Europe/London,0
CWH,CRHL,Crews Hill,0,51.68449,-0.10689,,,,,Europe/London,0
CWL,CLWALL,Colwall,0,52.07987,-2.35695,,,,,Europe/London,0
CWM,CWMBRAN,Cwmbran,0,51.65659,-3.0162,,,,,Europe/London,0
CWN,COWDEN,Cowden,0,51.15564,0.11003,,,,,Europe/London,0
CWS,CARSWS,Caersws,0,52.51612,-3.4325,,,,,Europe/London,0
CWU,CRWHRST,Crowhurst,0,50.88858,0.50134,,,,,Europe/London,0
CWX,CANWHRF,CANARY WHARF CROSSRAIL,0,0,0,,,,,Europe/London,0
CYB,CEFNYBD,Cefn-y-Bedd,0,53.0988,-3.03105,,,,,Europe/London,0
CYK,CLYBANK,Clydebank,0,55.90069,-4.40441,,,,,Europe/London,0
CYN,CYNGHRD,Cynghordy,0,52.0515,-3.74821,,,,,Europe/London,0
CYP,CRYSTLP,Crystal Palace,2,51.41811,-0.07261,,,,,Europe/London,0
CYS,CATHAYS,Cathays,0,51.4889,-3.17868,,,,,Europe/London,0
CYT,CHTR,Cherry Tree,0,53.73287,-2.51838,,,,,Europe/London,0
DAG,DALGETY,Dalgety Bay,0,56.04209,-3.36772,,,,,Europe/London,0
DAK,DLMRNOK,Dalmarnock,0,55.84209,-4.21771,,,,,Europe/London,0
DAL,DLMALLY,Dalmally,0,56.40119,-4.98355,,,,,Europe/London,0
DAM,DLMY,Dalmeny,1,55.98632,-3.38162,,,,,Europe/London,0
DAN,DARNALL,Darnall,0,53.38458,-1.41257,,,,,Europe/London,0
DAR,DLTN,Darlington,2,54.52045,-1.54732,,,,,Europe/London,0
DAT,DATCHET,Datchet,0,51.48308,-0.57942,,,,,Europe/London,0
DBC,DMBRTNC,Dumbarton Central,1,55.94665,-4.56692,,,,,Europe/London,0
DBD,DNDL,Denby Dale,0,53.57263,-1.66321,,,,,Europe/London,0
DBE,DMBRTNE,Dumbarton East,0,55.94225,-4.55414,,,,,Europe/London,0
DBG,MOTFONT,Mottisfont & Dunbridge,0,51.03393,-1.54708,,,,,Europe/London,0
DBL,DUNANE,Dunblane,1,56.18589,-3.96549,,,,,Europe/London,0
DBP,CATZDBP,DUBLIN PEARSE (CIE),0,0,0,,,,,Europe/Dublin,0
DBR,DERBYRD,Derby Road (Ipswich),0,52.05055,1.18264,,,,,Europe/London,0
DBY,DRBY,Derby,2,52.91655,-1.46335,,,,,Europe/London,0
DCG,DUNCRAG,Duncraig,0,57.337,-5.63713,,,,,Europe/London,0
DCH,DRCHS,Dorchester South,1,50.70929,-2.43724,,,,,Europe/London,0
DCL,DUBLINC,DUBLIN CONNOLLY (CIE),1,0,0,,,,,Europe/Dublin,0
DCT,DANESCT,Danescourt,0,51.50051,-3.23392,,,,,Europe/London,0
DCW,DRCHW,Dorchester West,1,50.71095,-2.44254,,,,,Europe/London,0
DDB,DUNLHRM,DUN LAOGHAIRE (CIV),1,0,0,,,,,Europe/London,0
DDG,DORIDGE,Dorridge,1,52.37207,-1.7529,,,,,Europe/London,0
DDK,DGNHMDC,Dagenham Dock,0,51.52609,0.1461,,,,,Europe/London,0
DDP,DUDLPT,Dudley Port,0,52.52465,-2.04948,,,,,Europe/London,0
DEA,DEAL,Deal,1,51.22304,1.39885,,,,,Europe/London,0
DEB,PBRODMP,DEREHAM MARKET PLACE,0,0,0,,,,,Europe/London,0
DEE,DUNDETB,Dundee,2,56.45649,-2.9712,,,,,Europe/London,0
DEN,DEAN,Dean,0,51.04246,-1.63487,,,,,Europe/London,0
DEP,DEPTFD,Deptford,0,51.47885,-0.02627,,,,,Europe/London,0
DEW,DWBY,Dewsbury,1,53.69213,-1.63311,,,,,Europe/London,0
DFD,DARTFD,Dartford,1,51.44737,0.21925,,,,,Europe/London,0
DFE,DNFRMLE,Dunfermline Town,1,56.06819,-3.45253,,,,,Europe/London,0
DFI,DUFIELD,Duffield,1,52.9884,-1.48597,,,,,Europe/London,0
DFL,DNFRMQM,Dunfermline Queen Margaret,1,56.08057,-3.42147,,,,,Europe/London,0
DFP,DUBLINF,DUBLIN FYPT I.F,1,0,0,,,,,Europe/London,0
DFR,DRMFCHR,Drumfrochar,0,55.94125,-4.77477,,,,,Europe/London,0
DGC,DENHMGC,Denham Golf Club,0,51.5806,-0.51779,,,,,Europe/London,0
DGL,DGLROAD,Dingle Road,0,51.44005,-3.18059,,,,,Europe/London,0
DGS,DOUGLAS,DOUGLAS IOM,0,0,0,,,,,Europe/London,0
DGT,MNCRDGT,Deansgate,2,53.47418,-2.25105,,,,,Europe/London,0
DGY,DEGANWY,Deganwy,0,53.29475,-3.83339,,,,,Europe/London,0
DHM,DRHM,Durham,1,54.77939,-1.58175,,,,,Europe/London,0
DHN,DEIGHTN,Deighton,0,53.66848,-1.7519,,,,,Europe/London,0
DHT,DUBLINH,DUBLIN HEUSTON (CIE),1,0,0,,,,,Europe/Dublin,0
DID,DIDCOTP,Didcot Parkway,2,51.61095,-1.24289,,,,,Europe/London,0
DIG,DIGBY,Digby & Sowton,0,50.71399,-3.47356,,,,,Europe/London,0
DIN,DINGWAL,Dingwall,1,57.59424,-4.4222,,,,,Europe/London,0
DIS,DISS,Diss,2,52.37366,1.1237,,,,,Europe/London,0
DKD,DUNKELD,Dunkeld & Birnam,0,56.55706,-3.5784,,,,,Europe/London,0
DKG,DORKING,Dorking,2,51.24093,-0.32425,,,,,Europe/London,0
DKR,DERKER,DERKER MTLK,0,0,0,,,,,Europe/London,0
DKT,DRKGW,Dorking West,0,51.23623,-0.33998,,,,,Europe/London,0
DLE,DULOE,DULOE(CAUSELAND),1,0,0,,,,,Europe/London,0
DLG,DOLGARG,Dolgarrog,0,53.18635,-3.82264,,,,,Europe/London,0
DLH,DOLEHAM,Doleham,0,50.91859,0.60997,,,,,Europe/London,0
DLJ,DALS,Dalston Junction,1,51.54612,-0.07514,,,,,Europe/London,0
DLK,DALSKLD,Dalston Kingsland,1,51.54815,-0.0757,,,,,Europe/London,0
DLM,DELAMER,Delamere,0,53.22878,-2.66656,,,,,Europe/London,0
DLR,DLREOCH,Dalreoch,1,55.94741,-4.57786,,,,,Europe/London,0
DLS,DALSTON,Dalston (Cumbria),0,54.84618,-2.98885,,,,,Europe/London,0
DLT,DALTON,Dalton,0,54.15424,-3.179,,,,,Europe/London,0
DLW,DALWHIN,Dalwhinnie,0,56.93517,-4.2462,,,,,Europe/London,0
DLY,DALRY,Dalry,0,55.70622,-4.71108,,,,,Europe/London,0
DMC,DRMCHPL,Drumchapel,0,55.90481,-4.36288,,,,,Europe/London,0
DMD,CATZDMD,DROMOD      (CIE,0,0,0,,,,,Europe/Dublin,0
DMF,DUMFRES,Dumfries,2,55.07256,-3.6043,,,,,Europe/London,0
DMG,DINASR,Dinas (Rhondda),0,51.61783,-3.43754,,,,,Europe/London,0
DMH,DILTONM,Dilton Marsh,0,51.24899,-2.20792,,,,,Europe/London,0
DMK,DENMRKH,Denmark Hill,2,51.4682,-0.08936,,,,,Europe/London,0
DML,MNCRDML,DROYLESDEN MTLK,0,0,0,,,,,Europe/London,0
DMP,DUMPTNP,Dumpton Park,0,51.3457,1.42582,,,,,Europe/London,0
DMR,DALMUIR,Dalmuir,1,55.91193,-4.42668,,,,,Europe/London,0
DMS,DORMANS,Dormans,0,51.15579,-0.00431,,,,,Europe/London,0
DMY,DRUMRY,Drumry,0,55.90459,-4.38547,,,,,Europe/London,0
DND,DINSDAL,Dinsdale,0,54.51473,-1.46706,,,,,Europe/London,0
DNG,DTNG,Dunton Green,0,51.29649,0.17094,,,,,Europe/London,0
DNL,DNLP,Dunlop,0,55.71188,-4.53239,,,,,Europe/London,0
DNM,DENHAM,Denham,1,51.57884,-0.49744,,,,,Europe/London,0
DNO,DNROBIN,Dunrobin Castle,0,57.98553,-3.94892,,,,,Europe/London,0
DNS,DINASP,Dinas Powys,0,51.43166,-3.21835,,,,,Europe/London,0
DNT,DENT,Dent,0,54.28241,-2.3636,,,,,Europe/London,0
DNY,DANBY,Danby,0,54.46615,-0.91096,,,,,Europe/London,0
DOC,DOCKYDP,Dockyard (Plymouth),0,50.38217,-4.1759,,,,,Europe/London,0
DOD,DODWRTH,Dodworth,0,53.54432,-1.53169,,,,,Europe/London,0
DOL,DOLAU,Dolau,0,52.29535,-3.26362,,,,,Europe/London,0
DON,DONC,Doncaster,2,53.52215,-1.13985,,,,,Europe/London,0
DOR,DORE,Dore & Totley,1,53.32763,-1.5153,,,,,Europe/London,0
DOT,DNSN,Dunston,0,54.95006,-1.64204,,,,,Europe/London,0
DOW,DOWNHAM,Downham Market,1,52.60411,0.36568,,,,,Europe/London,0
DPD,DEPDENE,Dorking Deepdene,2,51.2388,-0.32464,,,,,Europe/London,0
DPS,DUBLFST,DUBLIN PORT STENA,1,0,0,,,,,Europe/London,0
DPT,DEVNARB,Devonport,9,50.37853,-4.17071,,,,,Europe/London,0
DRA,CATZDRA,DROGHEDA    (CIE,0,0,0,,,,,Europe/Dublin,0
DRD,DNRD,DANE ROAD-MTLK,1,0,0,,,,,Europe/London,0
DRF,DRIFILD,Driffield,1,54.00153,-0.43466,,,,,Europe/London,0
DRG,DRAYGRN,Drayton Green,0,51.51662,-0.33019,,,,,Europe/London,0
DRI,DRIGG,Drigg,0,54.37696,-3.44341,,,,,Europe/London,0
DRM,DREMJ,Drem,1,56.00512,-2.78605,,,,,Europe/London,0
DRN,DUIRNSH,Duirinish,0,57.31998,-5.69132,,,,,Europe/London,0
DRO,DRONFLD,Dronfield,0,53.30137,-1.46878,,,,,Europe/London,0
DRT,DRTN,Darton,0,53.58837,-1.53166,,,,,Europe/London,0
DRU,DRMGLCH,Drumgelloch,0,55.86735,-3.94888,,,,,Europe/London,0
DSL,DISLEY,Disley,0,53.35818,-2.04248,,,,,Europe/London,0
DSM,DARSHAM,Darsham,0,52.273,1.52347,,,,,Europe/London,0
DST,DUKEST,Duke Street,0,55.85844,-4.21305,,,,,Europe/London,0
DSY,DAISYH,Daisy Hill,1,53.53945,-2.51586,,,,,Europe/London,0
DTG,DNTG,Dinting,0,53.44933,-1.9703,,,,,Europe/London,0
DTN,DNTON,Denton,0,53.45687,-2.13166,,,,,Europe/London,0
DTW,DRTWCHS,Droitwich Spa,2,52.2682,-2.15836,,,,,Europe/London,0
DUD,DUDESTN,Duddeston,0,52.48836,-1.87139,,,,,Europe/London,0
DUK,CATZDUK,DUNDALK     (CIE,0,0,0,,,,,Europe/Dublin,0
DUL,DULNGHM,Dullingham,2,52.20165,0.36666,,,,,Europe/London,0
DUM,DUMBRCK,Dumbreck,0,55.84465,-4.30124,,,,,Europe/London,0
DUN,DUNBAR,Dunbar,0,55.99829,-2.51335,,,,,Europe/London,0
DUO,DUNOON,DUNOON,0,0,0,,,,,Europe/London,0
DUR,DRNGTOS,Durrington-on-Sea,0,50.81753,-0.41147,,,,,Europe/London,0
DUU,DUNS,DUNS,0,0,0,,,,,Europe/London,0
DVC,DOVRCRT,Dovercourt,0,51.93874,1.28061,,,,,Europe/London,0
DVH,DVHL,Dove Holes,0,53.30003,-1.88975,,,,,Europe/London,0
DVM,MNCRDVM,DIDSBURY VILLAGE MTLK,0,0,0,,,,,Europe/London,0
DVN,DAVNPRT,Davenport,0,53.3909,-2.15296,,,,,Europe/London,0
DVP,DOVERP,Dover Priory,1,51.1257,1.30529,,,,,Europe/London,0
DVR,CATZDVR,DAVENTRY BUS,0,0,0,,,,,Europe/London,0
DVY,DOVYJN,Dovey Junction,1,52.56436,-3.9239,,,,,Europe/London,0
DWD,DLWYDLN,Dolwyddelan,0,53.05201,-3.88513,,,,,Europe/London,0
DWL,DAWLISH,Dawlish,0,50.58082,-3.46463,,,,,Europe/London,0
DWN,DARWEN,Darwen,0,53.69804,-2.46494,,,,,Europe/London,0
DWW,DAWLSHW,Dawlish Warren,0,50.59871,-3.44356,,,,,Europe/London,0
DYC,DYCE,Dyce,0,57.20565,-2.19232,,,,,Europe/London,0
DYF,DYFRYNA,Dyffryn Ardudwy,0,52.78885,-4.10464,,,,,Europe/London,0
DYP,DRYP,Drayton Park,0,51.55277,-0.10551,,,,,Europe/London,0
DZY,DANZEY,Danzey,0,52.32481,-1.82088,,,,,Europe/London,0
EAD,ERLFLD,Earlsfield,0,51.44234,-0.18771,,,,,Europe/London,0
EAG,EGLSCLF,Eaglescliffe,2,54.52943,-1.34944,,,,,Europe/London,0
EAL,ACTONW,Ealing Broadway,9,51.51484,-0.30175,,,,,Europe/London,0
EAR,ERLY,Earley,0,51.4411,-0.91799,,,,,Europe/London,0
EAS,ELSN,EARLSTON,0,0,0,,,,,Europe/London,0
EBA,EUXT,Euxton Balshaw Lane,0,53.66048,-2.67202,,,,,Europe/London,0
EBB,EBWVTN,Ebbw Vale Town,0,51.77669,-3.20258,,,,,Europe/London,0
EBD,EBSFDOM,Ebbsfleet International,1,51.44297,0.32092,,,,,Europe/London,0
EBF,EBSFLTI,EBBSFLEET INTCIV,0,0,0,,,,,Europe/London,0
EBK,EASTBRK,Eastbrook,0,51.43764,-3.20614,,,,,Europe/London,0
EBL,EBOLDON,East Boldon,0,54.94642,-1.42031,,,,,Europe/London,0
EBN,EBOURNE,Eastbourne,2,50.76938,0.28125,,,,,Europe/London,0
EBR,EDNB,Edenbridge,2,51.20844,0.06065,,,,,Europe/London,0
EBT,EDNT,Edenbridge Town,1,51.20008,0.06717,,,,,Europe/London,0
EBV,EBWVPWY,Ebbw Vale Parkway,0,51.75714,-3.1961,,,,,Europe/London,0
ECC,ECCLES,Eccles,0,53.48536,-2.33451,,,,,Europe/London,0
ECL,ECPK,Eccleston Park,0,53.43079,-2.78004,,,,,Europe/London,0
ECM,MNCRECC,ECCLES MTLK,1,0,0,,,,,Europe/London,0
ECP,ERGNCHP,Energlyn & Churchill Park,0,51.58321,-3.2288,,,,,Europe/London,0
ECR,ECROYDN,East Croydon,2,51.37545,-0.09278,,,,,Europe/London,0
ECS,ECLR,Eccles Road,0,52.47088,0.96992,,,,,Europe/London,0
ECW,COWESE,COWES EAST RFSHP,0,0,0,,,,,Europe/London,0
EDA,EDINAIR,EDB APT BUS/TRAM,0,0,0,,,,,Europe/London,0
EDB,EDINBUR,Edinburgh,3,55.95239,-3.18823,,,,,Europe/London,0
EDG,EDGH,Edge Hill,1,53.40262,-2.94648,,,,,Europe/London,0
EDL,EDALE,Edale,0,53.36497,-1.81663,,,,,Europe/London,0
EDM,MNCREDM,E DIDSBURY MTLK,0,0,0,,,,,Europe/London,0
EDN,EDPK,Eden Park,0,51.39009,-0.02636,,,,,Europe/London,0
EDP,EDINPRK,Edinburgh Park,0,55.92755,-3.30766,,,,,Europe/London,0
EDR,EDMNGRN,Edmonton Green,1,51.62493,-0.06111,,,,,Europe/London,0
EDW,EDULWCH,East Dulwich,0,51.46149,-0.08057,,,,,Europe/London,0
EDY,EDIDBRY,East Didsbury,0,53.40931,-2.222,,,,,Europe/London,0
EFD,CATZEFD,ENFIELD     (CIE,0,0,0,,,,,Europe/Dublin,0
EFF,EFNGHMJ,Effingham Junction,2,51.2915,-0.41997,,,,,Europe/London,0
EFL,EFARBUS,East Farleigh,9,51.25524,0.48473,,,,,Europe/London,0
EGF,EGRFRTH,East Garforth,0,53.79198,-1.37054,,,,,Europe/London,0
EGG,EGGESFD,Eggesford,0,50.88774,-3.87475,,,,,Europe/London,0
EGH,EGHAM,Egham,0,51.42965,-0.54651,,,,,Europe/London,0
EGN,ESTRNGT,Eastrington,0,53.75516,-0.78763,,,,,Europe/London,0
EGR,EGRNSTD,East Grinstead,0,51.12627,-0.0179,,,,,Europe/London,0
EGT,EGTON,Egton,0,54.43748,-0.76146,,,,,Europe/London,0
EGY,EDINGWY,Edinburgh Gateway,1,55.94094,-3.32025,,,,,Europe/London,0
EHC,MNCRECM,ETIHAD CAMP MTLK,0,0,0,,,,,Europe/London,0
EKB,ESKBANK,Eskbank,0,55.8818,-3.08307,,,,,Europe/London,0
EKL,EKILBRD,East Kilbride,0,55.766,-4.18023,,,,,Europe/London,0
EKR,CATZ010,EYTHORNE EKR,0,0,0,,,,,Europe/London,0
ELD,EARLSWD,Earlswood (Surrey),0,51.22733,-0.17082,,,,,Europe/London,0
ELE,ELMERSE,Elmers End,0,51.39849,-0.04957,,,,,Europe/London,0
ELG,ELGIN,Elgin,1,57.64291,-3.31125,,,,,Europe/London,0
ELM,MNCRELM,EDGE LANE MTLK,0,0,0,,,,,Europe/London,0
ELO,ELTON,Elton & Orston,0,52.95214,-0.85551,,,,,Europe/London,0
ELP,ELSMPRT,Ellesmere Port,2,53.28219,-2.89642,,,,,Europe/London,0
ELR,ELSC,Elsecar,0,53.49866,-1.42742,,,,,Europe/London,0
ELS,ELTR,Elstree & Borehamwood,0,51.65307,-0.28008,,,,,Europe/London,0
ELW,ELTHAM,Eltham,0,51.45564,0.05247,,,,,Europe/London,0
ELY,ELYY,Ely,2,52.39123,0.26683,,,,,Europe/London,0
EMA,EMPKAIR,EAST M AIR/DBY,0,0,0,,,,,Europe/London,0
EMC,EMPKAR3,EAST M AIR/EMD,0,0,0,,,,,Europe/London,0
EMD,EMPKWAY,East Midlands Parkway,2,52.8625,-1.26323,,,,,Europe/London,0
EML,EMALING,East Malling,0,51.28581,0.43928,,,,,Europe/London,0
EMP,EMRSPKH,Emerson Park,0,51.56864,0.22011,,,,,Europe/London,0
EMS,EMSWTH,Emsworth,0,50.85161,-0.93843,,,,,Europe/London,0
ENC,ENFC,Enfield Chase,1,51.65325,-0.0907,,,,,Europe/London,0
ENF,ENFLDTN,Enfield Town,1,51.65203,-0.07933,,,,,Europe/London,0
ENL,ENFLDLK,Enfield Lock,1,51.67092,-0.02853,,,,,Europe/London,0
ENN,CATZENN,ENNIS       (CIE,1,0,0,,,,,Europe/Dublin,0
ENS,ENISCTY,ENNISCORTHY (CIE,1,0,0,,,,,Europe/Dublin,0
ENT,ENTWISL,Entwistle,0,53.65598,-2.41454,,,,,Europe/London,0
EPD,EPSDNS,Epsom Downs,0,51.32369,-0.23895,,,,,Europe/London,0
EPH,ELPHNAC,Elephant & Castle,2,51.49403,-0.09873,,,,,Europe/London,0
EPS,EPSM,Epsom,2,51.33439,-0.26878,,,,,Europe/London,0
ERA,ESTHRAK,Eastham Rake,0,53.30754,-2.98113,,,,,Europe/London,0
ERB,ERIDBUS,Eridge - A26,1,51.08772,0.20129,,,,,Europe/London,0
ERD,ERDNGTN,Erdington,0,52.52828,-1.83951,,,,,Europe/London,0
ERH,ERITH,Erith,0,51.48167,0.17505,,,,,Europe/London,0
ERI,ERIDGE,Eridge,0,51.08897,0.20143,,,,,Europe/London,0
ERL,ERLSTWN,Earlestown,2,53.45114,-2.63766,,,,,Europe/London,0
ESD,ELMW,Elmstead Woods,0,51.41712,0.04427,,,,,Europe/London,0
ESH,ESHER,Esher,0,51.37989,-0.35334,,,,,Europe/London,0
ESL,ELGH,Eastleigh,2,50.96925,-1.35008,,,,,Europe/London,0
ESM,ELSENHM,Elsenham,0,51.92055,0.22807,,,,,Europe/London,0
EST,ESHS,Easterhouse,0,55.85976,-4.10718,,,,,Europe/London,0
ESW,ELMSWEL,Elmswell,0,52.23804,0.91259,,,,,Europe/London,0
ETC,ETCHNGM,Etchingham,0,51.01055,0.44236,,,,,Europe/London,0
ETL,ETILBRY,East Tilbury,0,51.48483,0.41293,,,,,Europe/London,0
EUS,EUSTON,London Euston,3,51.52814,-0.13392,,,,,Europe/London,0
EVE,EVESHAM,Evesham,2,52.0984,-1.94731,,,,,Europe/London,0
EWD,ELWD,Earlswood (West Midlands),0,52.36658,-1.86117,,,,,Europe/London,0
EWE,EWELLE,Ewell East,1,51.3453,-0.24153,,,,,Europe/London,0
EWR,EWRTHNG,East Worthing,0,50.82165,-0.35489,,,,,Europe/London,0
EWW,EWELW,Ewell West,1,51.35004,-0.25699,,,,,Europe/London,0
EXC,EXETERC,Exeter Central,1,50.72648,-3.53328,,,,,Europe/London,0
EXD,EXETRSD,Exeter St Davids,2,50.72927,-3.54329,,,,,Europe/London,0
EXG,EXHIBTC,Exhibition Centre (Glasgow),1,55.86155,-4.28359,,,,,Europe/London,0
EXM,EXMOUTH,Exmouth,0,50.62163,-3.41497,,,,,Europe/London,0
EXN,EXTON,Exton,0,50.6683,-3.4441,,,,,Europe/London,0
EXQ,MNCREQY,EXCHGE QUAY MTLK,1,0,0,,,,,Europe/London,0
EXR,ESSEXRD,Essex Road,0,51.54071,-0.09628,,,,,Europe/London,0
EXT,EXETRST,Exeter St Thomas,0,50.71715,-3.53884,,,,,Europe/London,0
EYN,EYNSFD,Eynsford,0,51.36272,0.20439,,,,,Europe/London,0
FAL,FALMTHD,Falmouth Docks,0,50.15071,-5.05603,,,,,Europe/London,0
FAR,CATZFAR,FARRANFORE  (CIE,0,0,0,,,,,Europe/Dublin,0
FAV,FAVRSHM,Faversham,1,51.31171,0.89105,,,,,Europe/London,0
FAX,CATZFAX,FARINGDON BUS,0,0,0,,,,,Europe/London,0
FAZ,FAZKRLY,Fazakerley,0,53.46908,-2.93672,,,,,Europe/London,0
FBY,FORMBY,Formby,1,53.55348,-3.07091,,,,,Europe/London,0
FCN,FALCNWD,Falconwood,0,51.45915,0.0793,,,,,Europe/London,0
FEA,FTHRSTN,Featherstone,0,53.67907,-1.35844,,,,,Europe/London,0
FEG,FELL,FELLGATE METRO,0,0,0,,,,,Europe/London,0
FEL,FELTHAM,Feltham,2,51.4479,-0.40984,,,,,Europe/London,0
FEN,FSTR,Fenny Stratford,0,52.00007,-0.716,,,,,Europe/London,0
FER,FERNHIL,Fernhill,0,51.68649,-3.39588,,,,,Europe/London,0
FFA,FFAIRFC,Ffairfach,0,51.87247,-3.99286,,,,,Europe/London,0
FFD,FRESHFD,Freshford,0,51.34203,-2.30101,,,,,Europe/London,0
FGH,FGDHBR,Fishguard Harbour,1,52.01154,-4.98564,,,,,Europe/London,0
FGT,FAYGATE,Faygate,0,51.09589,-0.26302,,,,,Europe/London,0
FGW,FGDHGWK,Fishguard & Goodwick,0,52.00411,-4.99484,,,,,Europe/London,0
FHM,MNCRFHM,FREEHOLD MTLK,0,0,0,,,,,Europe/London,0
FIL,FILEY,Filey,0,54.20986,-0.29385,,,,,Europe/London,0
FIN,FINSTCK,Finstock,0,51.85278,-1.46934,,,,,Europe/London,0
FIT,FILTNEW,Filton Abbey Wood,2,51.50494,-2.56243,,,,,Europe/London,0
FKC,FLKSTNC,Folkestone Central,1,51.08289,1.16948,,,,,Europe/London,0
FKG,FALKRKG,Falkirk Grahamston,2,56.00261,-3.78505,,,,,Europe/London,0
FKK,FALKRKH,Falkirk High,1,55.99182,-3.79224,,,,,Europe/London,0
FKW,FLKSTNW,Folkestone West,0,51.08459,1.1539,,,,,Europe/London,0
FLD,FAULDHS,Fauldhouse,0,55.82247,-3.71932,,,,,Europe/London,0
FLE,FLEET,Fleet,0,51.29063,-0.83081,,,,,Europe/London,0
FLF,FLWRYFD,Flowery Field,1,53.46185,-2.08105,,,,,Europe/London,0
FLI,FLIXTON,Flixton,0,53.44381,-2.38425,,,,,Europe/London,0
FLM,FLIMBY,Flimby,0,54.68969,-3.52074,,,,,Europe/London,0
FLN,FLINT,Flint,0,53.24952,-3.13299,,,,,Europe/London,0
FLS,FALSWTH,FAILSWORTH MTLK,0,0,0,,,,,Europe/London,0
FLT,FLITWCK,Flitwick,2,52.00364,-0.49526,,,,,Europe/London,0
FLW,FULWELL,Fulwell,0,51.43394,-0.34947,,,,,Europe/London,0
FLX,FLXSTOW,Felixstowe,0,51.96707,1.35044,,,,,Europe/London,0
FML,FRIMLEY,Frimley,0,51.31186,-0.74699,,,,,Europe/London,0
FMR,FAMR,Falmer,0,50.86213,-0.08739,,,,,Europe/London,0
FMT,FALMTHT,Falmouth Town,0,50.14834,-5.06493,,,,,Europe/London,0
FNB,FRBRMN,Farnborough (Main),2,51.29669,-0.75544,,,,,Europe/London,0
FNC,FRNCMB,Farncombe,0,51.19715,-0.60455,,,,,Europe/London,0
FNH,FARNHAM,Farnham,1,51.2119,-0.79243,,,,,Europe/London,0
FNN,FRBRNTH,Farnborough North,2,51.30204,-0.74303,,,,,Europe/London,0
FNR,FRNNGRD,Farningham Road,0,51.40167,0.23545,,,,,Europe/London,0
FNT,FENITON,Feniton,0,50.78668,-3.28542,,,,,Europe/London,0
FNV,FURNESV,Furness Vale,0,53.34875,-1.98884,,,,,Europe/London,0
FNW,FRNW,Farnworth,0,53.55,-2.38785,,,,,Europe/London,0
FNY,FNCHLYR,Finchley Road & Frognal,0,51.55027,-0.18314,,,,,Europe/London,0
FOC,FLSCRHN,Falls of Cruachan,0,56.39388,-5.11248,,,,,Europe/London,0
FOD,FORD,Ford,2,50.82939,-0.57841,,,,,Europe/London,0
FOG,FRSTGT,Forest Gate,1,51.54943,0.02435,,,,,Europe/London,0
FOH,FORESTH,Forest Hill,1,51.43928,-0.05316,,,,,Europe/London,0
FOK,FOUROKS,Four Oaks,0,52.57978,-1.82803,,,,,Europe/London,0
FOR,FORRES,Forres,0,57.6098,-3.62595,,,,,Europe/London,0
FOT,CATZFOT,FOTA        (CIE,0,0,0,,,,,Europe/Dublin,0
FOX,FOXFILD,Foxfield,0,54.25867,-3.21606,,,,,Europe/London,0
FPK,FNPK,Finsbury Park,2,51.5643,-0.10628,,,,,Europe/London,0
FRB,FRBN,Fairbourne,0,52.69604,-4.04941,,,,,Europe/London,0
FRD,FRDSHM,Frodsham,0,53.29582,-2.72357,,,,,Europe/London,0
FRE,FRSHFLD,Freshfield,0,53.56605,-3.07183,,,,,Europe/London,0
FRF,FRFD,Fairfield,0,53.47129,-2.14577,,,,,Europe/London,0
FRI,FRINTON,Frinton-on-Sea,0,51.83768,1.24317,,,,,Europe/London,0
FRL,FAIRLIE,Fairlie,0,55.75194,-4.85327,,,,,Europe/London,0
FRM,FAREHAM,Fareham,2,50.85303,-1.19204,,,,,Europe/London,0
FRN,FEARN,Fearn,0,57.77814,-3.99394,,,,,Europe/London,0
FRO,FROME,Frome,1,51.22727,-2.31,,,,,Europe/London,0
FRS,FORSNRD,Forsinard,0,58.3569,-3.89688,,,,,Europe/London,0
FRT,FRANT,Frant,0,51.10403,0.29454,,,,,Europe/London,0
FRW,FRWATER,Fairwater,0,51.49391,-3.23384,,,,,Europe/London,0
FRY,FERRIBY,Ferriby,0,53.71715,-0.50783,,,,,Europe/London,0
FSB,FSHBBUS,Fishbourne,9,50.83905,-0.81508,,,,,Europe/London,0
FSG,FSHRSGT,Fishersgate,0,50.83423,-0.21942,,,,,Europe/London,0
FSK,FISKRTN,Fiskerton,0,53.06027,-0.91219,,,,,Europe/London,0
FST,FENCHRS,London Fenchurch Street,3,51.51165,-0.0789,,,,,Europe/London,0
FTM,FRTMTLD,Fort Matilda,0,55.95903,-4.79527,,,,,Europe/London,0
FTN,FRATGSA,Fratton,9,50.79634,-1.07398,,,,,Europe/London,0
FTW,FRTWLM,Fort William,1,56.82044,-5.10614,,,,,Europe/London,0
FWN,MNCRRFW,FIRSWOOD MTLK,1,0,0,,,,,Europe/London,0
FWY,FIVEWYS,Five Ways,0,52.47109,-1.91295,,,,,Europe/London,0
FXF,CATZFXF,FOXFORD     (CIE,0,0,0,,,,,Europe/Dublin,0
FXN,FOXTON,Foxton,0,52.11921,0.05631,,,,,Europe/London,0
FYS,FYSD,Ferryside,0,51.76837,-4.36946,,,,,Europe/London,0
FZH,FRZNGHL,Frizinghall,0,53.82037,-1.769,,,,,Europe/London,0
FZP,FURZEP,Furze Platt,0,51.53302,-0.72847,,,,,Europe/London,0
FZW,FITZWLM,Fitzwilliam,1,53.6325,-1.37427,,,,,Europe/London,0
GAL,GALASLS,Galashiels,0,55.6179,-2.80595,,,,,Europe/London,0
GAR,GARROWH,Garrowhill,0,55.85524,-4.12946,,,,,Europe/London,0
GBD,GLBRDYK,Gilberdyke,1,53.74796,-0.73224,,,,,Europe/London,0
GBG,GOREBRG,Gorebridge,1,55.84027,-3.04652,,,,,Europe/London,0
GBK,GBNK,Greenbank,1,53.25146,-2.53427,,,,,Europe/London,0
GBL,GBGHLRD,Gainsborough Lea Road,1,53.38609,-0.76858,,,,,Europe/London,0
GBS,GORNGBS,Goring-by-Sea,0,50.81772,-0.43308,,,,,Europe/London,0
GCH,GRLCHHD,Garelochhead,0,56.07986,-4.82572,,,,,Europe/London,0
GCR,BNWDJN,Gloucester,9,51.86556,-2.23849,,,,,Europe/London,0
GCT,GTCOATS,Great Coates,0,53.57575,-0.13023,,,,,Europe/London,0
GCW,GLNCNWY,Glan Conwy,0,53.26742,-3.79773,,,,,Europe/London,0
GDH,GORDONH,Gordon Hill,1,51.66334,-0.09461,,,,,Europe/London,0
GDL,GODLY,Godley,1,53.4517,-2.05477,,,,,Europe/London,0
GDN,GODSTON,Godstone,0,51.21816,-0.05008,,,,,Europe/London,0
GDP,GIDEAPK,Gidea Park,1,51.5819,0.20596,,,,,Europe/London,0
GEA,GRETGRN,Gretna Green,0,55.00105,-3.0652,,,,,Europe/London,0
GER,GERRDSX,Gerrards Cross,2,51.58902,-0.55528,,,,,Europe/London,0
GFD,GFORD,Greenford,1,51.54233,-0.34584,,,,,Europe/London,0
GFF,GLFCHFR,Gilfach Fargoed,0,51.68425,-3.22657,,,,,Europe/London,0
GFN,GIFNOCK,Giffnock,0,55.80399,-4.29301,,,,,Europe/London,0
GFY,GRVSFRY,GRAVESEND PIERS,1,0,0,,,,,Europe/London,0
GGJ,GRGMASJ,Georgemas Junction,0,58.51362,-3.45212,,,,,Europe/London,0
GGT,GLGAPT,GLASGOW AIRPORT,0,0,0,,,,,Europe/London,0
GGV,GRGRAVE,Gargrave,0,53.97842,-2.10517,,,,,Europe/London,0
GIG,GGLSWCK,Giggleswick,0,54.0618,-2.30285,,,,,Europe/London,0
GIL,GLHM,Gillingham (Dorset),2,51.03403,-2.27262,,,,,Europe/London,0
GIP,GIPSYH,Gipsy Hill,0,51.42445,-0.08384,,,,,Europe/London,0
GIR,GIRVAN,Girvan,0,55.24631,-4.84838,,,,,Europe/London,0
GKC,GRENCKC,Greenock Central,0,55.94534,-4.75263,,,,,Europe/London,0
GKW,GRENCKW,Greenock West,0,55.94734,-4.76783,,,,,Europe/London,0
GLC,GLGCLL,Glasgow Central,9,55.85976,-4.25764,,,,,Europe/London,0
GLD,GUILDFD,Guildford,2,51.23697,-0.58042,,,,,Europe/London,0
GLE,GLNEGLS,Gleneagles,0,56.27485,-3.73117,,,,,Europe/London,0
GLF,GLNFNNN,Glenfinnan,0,56.8724,-5.44962,,,,,Europe/London,0
GLG,GLGN,Glengarnock,1,55.73889,-4.6745,,,,,Europe/London,0
GLH,GLASHTN,Glasshoughton,1,53.70904,-1.34201,,,,,Europe/London,0
GLM,GLNGHMK,Gillingham (Kent),1,51.38657,0.54985,,,,,Europe/London,0
GLO,GLSP,Glossop,0,53.44447,-1.94907,,,,,Europe/London,0
GLQ,GLGQLL,Glasgow Queen Street,9,55.86219,-4.25146,,,,,Europe/London,0
GLS,GLAISDL,Glaisdale,0,54.43938,-0.79379,,,,,Europe/London,0
GLT,GLNRTHS,Glenrothes with Thornton,1,56.16236,-3.14302,,,,,Europe/London,0
GLY,GLYNDE,Glynde,0,50.85917,0.07008,,,,,Europe/London,0
GLZ,GLAZBRK,Glazebrook,0,53.42836,-2.45966,,,,,Europe/London,0
GMB,GRMSBYT,Grimsby Town,1,53.56343,-0.08698,,,,,Europe/London,0
GMD,GRMSBYD,Grimsby Docks,0,53.57432,-0.07562,,,,,Europe/London,0
GMG,GRTHMG,Garth (Bridgend),0,51.59646,-3.64145,,,,,Europe/London,0
GMN,GTMSNDN,Great Missenden,1,51.70352,-0.70914,,,,,Europe/London,0
GMT,GROSMNT,Grosmont,0,54.43611,-0.72497,,,,,Europe/London,0
GMV,GTMLVRN,Great Malvern,1,52.1092,-2.31827,,,,,Europe/London,0
GMY,GODMAYS,Goodmayes,0,51.56558,0.11081,,,,,Europe/London,0
GNB,GBROC,Gainsborough Central,1,53.39958,-0.76969,,,,,Europe/London,0
GNF,GFLD,Greenfield,0,53.53886,-2.01384,,,,,Europe/London,0
GNH,GNHT,Greenhithe for Bluewater,0,51.45037,0.28029,,,,,Europe/London,0
GNL,GNLN,Green Lane,0,53.38325,-3.01641,,,,,Europe/London,0
GNR,GREENRD,Green Road,0,54.24453,-3.24557,,,,,Europe/London,0
GNT,GUNTON,Gunton,0,52.86635,1.34912,,,,,Europe/London,0
GNW,GNWH,Greenwich,1,51.47814,-0.01334,,,,,Europe/London,0
GOB,GOBOWEN,Gobowen,0,52.89351,-3.03717,,,,,Europe/London,0
GOD,GDLMING,Godalming,0,51.18659,-0.61886,,,,,Europe/London,0
GOE,GLDTHRP,Goldthorpe,0,53.53419,-1.31281,,,,,Europe/London,0
GOF,GOLFSTR,Golf Street,0,56.49779,-2.71954,,,,,Europe/London,0
GOL,GOLSPIE,Golspie,0,57.97146,-3.98721,,,,,Europe/London,0
GOM,GOMSHAL,Gomshall,1,51.2194,-0.44185,,,,,Europe/London,0
GOO,GOOLE,Goole,1,53.70491,-0.87421,,,,,Europe/London,0
GOP,GOSTBUS,GOSPORT BUS E1/E2,0,0,0,,,,,Europe/London,0
GOR,GORASTR,Goring & Streatley,0,51.52149,-1.13305,,,,,Europe/London,0
GOS,GOVS,Grange-over-Sands,1,54.19572,-2.90275,,,,,Europe/London,0
GOX,GOXHILL,Goxhill,0,53.6767,-0.33712,,,,,Europe/London,0
GOY,CATZGOY,GOREY       (CIE,0,0,0,,,,,Europe/Dublin,0
GPK,GRPK,Grange Park,0,51.64261,-0.09736,,,,,Europe/London,0
GPO,GOSPLOK,Gospel Oak,2,51.55534,-0.15077,,,,,Europe/London,0
GRA,GTHM,Grantham,2,52.90647,-0.64245,,,,,Europe/London,0
GRB,GTBNTLY,Great Bentley,0,51.85176,1.06515,,,,,Europe/London,0
GRC,GTCHSFD,Great Chesterford,0,52.05981,0.19352,,,,,Europe/London,0
GRF,GARFRTH,Garforth,0,53.79658,-1.38231,,,,,Europe/London,0
GRH,GRTCSH,Gartcosh,0,55.88566,-4.07949,,,,,Europe/London,0
GRK,GOUROCK,Gourock,1,55.96232,-4.81666,,,,,Europe/London,0
GRL,GRNFLDS,Greenfaulds,1,55.93523,-3.9931,,,,,Europe/London,0
GRN,GRNDLFD,Grindleford,0,53.30556,-1.6263,,,,,Europe/London,0
GRP,GRVPK,Grove Park,2,51.43086,0.02173,,,,,Europe/London,0
GRS,GSCD,Garscadden,0,55.88769,-4.365,,,,,Europe/London,0
GRT,GRATELY,Grateley,0,51.17006,-1.62077,,,,,Europe/London,0
GRV,GRVSEND,Gravesend,1,51.44135,0.36664,,,,,Europe/London,0
GRY,GRAYS,Grays,1,51.47625,0.32183,,,,,Europe/London,0
GSC,LAMBH,Gilshochill,0,55.89734,-4.28268,,,,,Europe/London,0
GSD,GARSDLE,Garsdale,0,54.32143,-2.32635,,,,,Europe/London,0
GSL,GUNISLK,Gunnislake,0,50.51608,-4.21941,,,,,Europe/London,0
GSN,GRSTH,Garston (Herts),0,51.68662,-0.38174,,,,,Europe/London,0
GSO,CATZGSO,GREYSTONES  (CIE,0,0,0,,,,,Europe/Dublin,0
GST,GATHRST,Gathurst,0,53.5594,-2.69439,,,,,Europe/London,0
GSW,GARW,Garswood,0,53.48852,-2.67213,,,,,Europe/London,0
GSY,GUISELY,Guiseley,1,53.87593,-1.71508,,,,,Europe/London,0
GTA,GTAYTON,Great Ayton,0,54.48957,-1.11535,,,,,Europe/London,0
GTH,GARTH,Garth (Powys),0,52.13324,-3.52991,,,,,Europe/London,0
GTN,GNTN,Grangetown (Cardiff),1,51.46761,-3.18972,,,,,Europe/London,0
GTO,GORTON,Gorton,0,53.46907,-2.16621,,,,,Europe/London,0
GTR,GOOSTRY,Goostrey,0,53.22255,-2.32647,,,,,Europe/London,0
GTW,GTWK,Gatwick Airport,2,51.15649,-0.16104,,,,,Europe/London,0
GTY,GATLEY,Gatley,0,53.3929,-2.23123,,,,,Europe/London,0
GUD,GOODSND,GOODRINGTON SANDS,0,0,0,,,,,Europe/London,0
GUI,GIDB,Guide Bridge,1,53.47463,-2.11371,,,,,Europe/London,0
GUN,GNRSBRY,Gunnersbury,1,51.49168,-0.27529,,,,,Europe/London,0
GVE,GARVE,Garve,0,57.61304,-4.6884,,,,,Europe/London,0
GVH,GRAVLYH,Gravelly Hill,0,52.515,-1.8526,,,,,Europe/London,0
GWE,GWRSYLT,Gwersyllt,0,53.07257,-3.01789,,,,,Europe/London,0
GWN,GOWERTN,Gowerton,0,51.64873,-4.03593,,,,,Europe/London,0
GWY,GALWAY,GALWAY      (CIE,0,0,0,,,,,Europe/Dublin,0
GXX,GOURPIE,GOUROCK PIER,1,0,0,,,,,Europe/London,0
GYM,YARMTH,Great Yarmouth,0,52.61216,1.72089,,,,,Europe/London,0
GYP,GYPSYLA,Gypsy Lane,0,54.53289,-1.17939,,,,,Europe/London,0
HAB,HABRO,Habrough,1,53.60608,-0.26946,,,,,Europe/London,0
HAC,HAKNYNM,Hackney Downs,1,51.54876,-0.06082,,,,,Europe/London,0
HAD,HADISCO,Haddiscoe,0,52.52879,1.62301,,,,,Europe/London,0
HAF,HTRWTM4,Heathrow Terminal 4,0,51.45827,-0.44546,,,,,Europe/London,0
HAG,HAGLEY,Hagley,0,52.42249,-2.14642,,,,,Europe/London,0
HAI,HALG,Halling,0,51.35248,0.44493,,,,,Europe/London,0
HAL,HALE,Hale,0,53.37872,-2.34736,,,,,Europe/London,0
HAM,HMWTHY,Hamworthy,0,50.72519,-2.01936,,,,,Europe/London,0
HAN,HANWELL,Hanwell,0,51.51183,-0.33858,,,,,Europe/London,0
HAP,HFLPEVL,Hatfield Peverel,0,51.77986,0.59212,,,,,Europe/London,0
HAS,HALSWTH,Halesworth,1,52.34682,1.50567,,,,,Europe/London,0
HAT,HATFILD,Hatfield (Herts),0,51.76388,-0.21559,,,,,Europe/London,0
HAV,HAVANT,Havant,2,50.85443,-0.98161,,,,,Europe/London,0
HAY,HAYESAH,Hayes & Harlington,1,51.5031,-0.42068,,,,,Europe/London,0
HAZ,HAZL,Hazel Grove,1,53.37754,-2.12202,,,,,Europe/London,0
HBB,HBRTBDG,Hubberts Bridge,0,52.97535,-0.11053,,,,,Europe/London,0
HBC,MNCRHBC,HARBOUR CTY MTLK,1,0,0,,,,,Europe/London,0
HBD,HBDNBDG,Hebden Bridge,2,53.73759,-2.00906,,,,,Europe/London,0
HBF,HEVEBUS,HEVER BROCASFARM,1,0,0,,,,,Europe/London,0
HBN,HBRN,Hollingbourne,0,51.26518,0.62785,,,,,Europe/London,0
HBP,HRNBPK,Hornbeam Park,0,53.97987,-1.52682,,,,,Europe/London,0
HBY,HBRY,Hartlebury,0,52.33449,-2.22112,,,,,Europe/London,0
HCB,HKBG,Hackbridge,0,51.37787,-0.15391,,,,,Europe/London,0
HCH,HCHP,Holmes Chapel,0,53.19893,-2.35114,,,,,Europe/London,0
HCN,HEADCRN,Headcorn,2,51.16571,0.62748,,,,,Europe/London,0
HCT,HUNCOAT,Huncoat,0,53.77178,-2.34756,,,,,Europe/London,0
HDB,HYDB,Haydon Bridge,2,54.97518,-2.24759,,,,,Europe/London,0
HDE,HEDGEND,Hedge End,0,50.93232,-1.2945,,,,,Europe/London,0
HDF,HADFILD,Hadfield,0,53.46074,-1.96532,,,,,Europe/London,0
HDG,HLDG,Heald Green,0,53.36942,-2.23667,,,,,Europe/London,0
HDH,HMPSTDH,Hampstead Heath,1,51.55521,-0.16571,,,,,Europe/London,0
HDL,HEDSTNL,Headstone Lane,0,51.60265,-0.35722,,,,,Europe/London,0
HDM,HADMATP,Haddenham & Thame Parkway,1,51.77086,-0.94214,,,,,Europe/London,0
HDN,HARLSDN,Harlesden,0,51.53629,-0.25767,,,,,Europe/London,0
HDW,HADLYWD,Hadley Wood,0,51.6685,-0.17617,,,,,Europe/London,0
HDY,HEDNGLY,Headingley,0,53.81797,-1.59419,,,,,Europe/London,0
HEC,HCKNGTN,Heckington,0,52.97732,-0.29394,,,,,Europe/London,0
HED,HALW,Halewood,0,53.36448,-2.83013,,,,,Europe/London,0
HEI,HGHNGTN,Heighington,0,54.59696,-1.58177,,,,,Europe/London,0
HEL,HENSALL,Hensall,0,53.69854,-1.11452,,,,,Europe/London,0
HEN,HDON,Hendon,1,51.58007,-0.23867,,,,,Europe/London,0
HER,HERSHAM,Hersham,0,51.37681,-0.38996,,,,,Europe/London,0
HES,HESSLE,Hessle,0,53.71744,-0.44182,,,,,Europe/London,0
HEV,HEVER,Hever,0,51.18141,0.09507,,,,,Europe/London,0
HEW,HEWORTH,Heworth,1,54.95157,-1.55577,,,,,Europe/London,0
HEX,HEXHAM,Hexham,1,54.97346,-2.09479,,,,,Europe/London,0
HFD,HEREFRD,Hereford,2,52.06116,-2.70821,,,,,Europe/London,0
HFE,HERTFDE,Hertford East,1,51.79903,-0.07294,,,,,Europe/London,0
HFN,HFDN,Hertford North,1,51.79886,-0.09179,,,,,Europe/London,0
HFS,HTFLASF,Hatfield & Stainforth,1,53.58872,-1.02338,,,,,Europe/London,0
HFX,HLFX,Halifax,2,53.72096,-1.85357,,,,,Europe/London,0
HGD,HUNGRFD,Hungerford,1,51.41491,-1.51229,,,,,Europe/London,0
HGF,HAGFOLD,Hag Fold,0,53.53385,-2.49482,,,,,Europe/London,0
HGG,HAGGERS,Haggerston,0,51.53871,-0.07567,,,,,Europe/London,0
HGM,HIGM,Higham,1,51.42656,0.46628,,,,,Europe/London,0
HGN,HOUGHGR,Hough Green,0,53.37239,-2.77507,,,,,Europe/London,0
HGR,HTHRGRN,Hither Green,2,51.45203,-0.00094,,,,,Europe/London,0
HGS,HASTING,Hastings,2,50.8579,0.57674,,,,,Europe/London,0
HGT,HAGT,Harrogate,1,53.99318,-1.53761,,,,,Europe/London,0
HGY,HRGY,Harringay,1,51.57736,-0.10514,,,,,Europe/London,0
HHB,HEYMST,HEYSHAM PORT,1,0,0,,,,,Europe/London,0
HHD,HLYH,Holyhead,2,53.30768,-4.631,,,,,Europe/London,0
HHE,HYWRDSH,Haywards Heath,2,51.00568,-0.10508,,,,,Europe/London,0
HHL,HEATHHL,Heath High Level,1,51.51643,-3.18154,,,,,Europe/London,0
HHY,HGHI,Highbury & Islington,2,51.54609,-0.10377,,,,,Europe/London,0
HIA,HMPTNIA,Hampton-in-Arden,0,52.42903,-1.69993,,,,,Europe/London,0
HIB,HBROOMS,High Brooms,0,51.1494,0.27733,,,,,Europe/London,0
HID,HITW,Hall i' th' Wood,0,53.59742,-2.41311,,,,,Europe/London,0
HIG,HGHBRDG,Highbridge & Burnham-on-Sea,0,51.21816,-2.97215,,,,,Europe/London,0
HIL,HILLSID,Hillside,0,53.62211,-3.02472,,,,,Europe/London,0
HIN,HINDLEY,Hindley,1,53.54224,-2.5755,,,,,Europe/London,0
HIP,HGHMSPK,Highams Park,0,51.60835,-0.00022,,,,,Europe/London,0
HIR,HTNRIBL,Horton-in-Ribblesdale,0,54.14939,-2.30203,,,,,Europe/London,0
HIT,HITCHIN,Hitchin,2,51.95328,-0.26348,,,,,Europe/London,0
HKC,HACKNYC,Hackney Central,2,51.5471,-0.05606,,,,,Europe/London,0
HKH,HWKHEAD,Hawkhead,0,55.84219,-4.39885,,,,,Europe/London,0
HKM,HYKEHAM,Hykeham,0,53.19501,-0.6002,,,,,Europe/London,0
HKN,HUCKNAL,Hucknall,0,53.03828,-1.19581,,,,,Europe/London,0
HKW,HACKNYW,Hackney Wick,0,51.54341,-0.02492,,,,,Europe/London,0
HLB,HLDNBRO,Hildenborough,0,51.21449,0.22759,,,,,Europe/London,0
HLC,HLNSBRC,Helensburgh Central,0,56.00421,-4.73276,,,,,Europe/London,0
HLD,HELIFLD,Hellifield,1,54.01086,-2.22784,,,,,Europe/London,0
HLE,HLNGTNE,Hillington East,0,55.85418,-4.35501,,,,,Europe/London,0
HLF,HLFT,Hillfoot,0,55.92009,-4.32027,,,,,Europe/London,0
HLG,HLGN,Hall Green,0,52.43691,-1.84565,,,,,Europe/London,0
HLI,HEALING,Healing,0,53.5818,-0.16063,,,,,Europe/London,0
HLL,HEATHLL,Heath Low Level,1,51.51566,-3.18197,,,,,Europe/London,0
HLM,HLMW,Holmwood,0,51.1812,-0.32081,,,,,Europe/London,0
HLN,HRLG,Harlington (Beds),0,51.96206,-0.49569,,,,,Europe/London,0
HLR,HALLRD,Hall Road,1,53.49749,-3.04963,,,,,Europe/London,0
HLS,HILSEA,Hilsea,1,50.82828,-1.0588,,,,,Europe/London,0
HLU,HLNSBRU,Helensburgh Upper,0,56.01236,-4.7298,,,,,Europe/London,0
HLW,HLNGTNW,Hillington West,0,55.85602,-4.37158,,,,,Europe/London,0
HLY,HOLYTNJ,Holytown,9,55.8129,-3.97393,,,,,Europe/London,0
HMC,HCRT,Hampton Court,1,51.40256,-0.34275,,,,,Europe/London,0
HMD,HMPDNPK,Hampden Park (Sussex),2,50.79641,0.27936,,,,,Europe/London,0
HME,HMBLE,Hamble,0,50.87137,-1.32916,,,,,Europe/London,0
HMK,HAWESMP,HAWES,1,0,0,,,,,Europe/London,0
HML,HEMLHMP,Hemel Hempstead,1,51.74233,-0.49077,,,,,Europe/London,0
HMM,HAMERTN,Hammerton,0,53.99633,-1.2841,,,,,Europe/London,0
HMN,HOMRTON,Homerton,0,51.54701,-0.04236,,,,,Europe/London,0
HMP,HAMPTON,Hampton (London),0,51.41593,-0.37212,,,,,Europe/London,0
HMS,HELMSDL,Helmsdale,0,58.11744,-3.65869,,,,,Europe/London,0
HMT,HMST,Ham Street,0,51.06838,0.85451,,,,,Europe/London,0
HMW,HAMWICK,Hampton Wick,0,51.41452,-0.31249,,,,,Europe/London,0
HMY,HARMYRS,Hairmyres,0,55.76197,-4.22001,,,,,Europe/London,0
HNA,HINTONA,Hinton Admiral,0,50.75264,-1.71413,,,,,Europe/London,0
HNB,HRNEBAY,Herne Bay,1,51.36459,1.11773,,,,,Europe/London,0
HNC,HAMLTNC,Hamilton Central,1,55.77319,-4.03888,,,,,Europe/London,0
HND,HANDBRO,Hanborough,2,51.82516,-1.37353,,,,,Europe/London,0
HNF,HDNS,Hednesford,1,52.71011,-2.00178,,,,,Europe/London,0
HNG,HENGOED,Hengoed,0,51.64741,-3.22413,,,,,Europe/London,0
HNH,HERNEH,Herne Hill,2,51.45331,-0.10229,,,,,Europe/London,0
HNK,HINCKLY,Hinckley,0,52.535,-1.37192,,,,,Europe/London,0
HNL,HENLYIA,Henley-in-Arden,0,52.29149,-1.78399,,,,,Europe/London,0
HNT,HNTL,Huntly,1,57.44449,-2.77574,,,,,Europe/London,0
HNW,HAMLTNW,Hamilton West,0,55.77886,-4.05481,,,,,Europe/London,0
HNX,HUNTSX,Hunts Cross,2,53.36071,-2.85586,,,,,Europe/London,0
HNY,STOKHAN,HANLEY BUS STN,0,0,0,,,,,Europe/London,0
HOC,HOCKLEY,Hockley,1,51.60356,0.659,,,,,Europe/London,0
HOD,HOLINWS,HOLLINWOOD MTLK,0,0,0,,,,,Europe/London,0
HOH,HAROOTH,Harrow-on-the-Hill,1,51.57919,-0.33723,,,,,Europe/London,0
HOK,HOOK,Hook,0,51.28,-0.96164,,,,,Europe/London,0
HOL,HOLTONH,Holton Heath,0,50.71141,-2.07784,,,,,Europe/London,0
HON,HONITNS,Honiton,9,50.79658,-3.18672,,,,,Europe/London,0
HOO,HOOTON,Hooton,2,53.2972,-2.97701,,,,,Europe/London,0
HOP,HOPD,Hope (Derbyshire),0,53.34611,-1.72989,,,,,Europe/London,0
HOR,HORLEY,Horley,2,51.16878,-0.16105,,,,,Europe/London,0
HOT,HNLYOT,Henley-on-Thames,0,51.53418,-0.90021,,,,,Europe/London,0
HOU,HOUNSLW,Hounslow,1,51.46195,-0.36228,,,,,Europe/London,0
HOV,HOVE,Hove,2,50.83522,-0.17069,,,,,Europe/London,0
HOW,HOWDEN,Howden,0,53.76471,-0.86046,,,,,Europe/London,0
HOX,HOXTON,Hoxton,0,51.53151,-0.07568,,,,,Europe/London,0
HOY,HONLEY,Honley,0,53.60823,-1.78097,,,,,Europe/London,0
HOZ,HOWOOD,Howwood (Renfrewshire),0,55.81056,-4.56306,,,,,Europe/London,0
HPA,HONROPK,Honor Oak Park,0,51.44999,-0.04551,,,,,Europe/London,0
HPD,HRPNDN,Harpenden,1,51.81464,-0.35148,,,,,Europe/London,0
HPE,HOPC,Hope (Flintshire),0,53.11736,-3.03688,,,,,Europe/London,0
HPK,HTPK,HEATON PARK MTLK,1,0,0,,,,,Europe/London,0
HPL,HRTLEPL,Hartlepool,1,54.68676,-1.20732,,,,,Europe/London,0
HPN,HAPTON,Hapton,0,53.78161,-2.31691,,,,,Europe/London,0
HPQ,PRKSTON,Harwich International,1,51.94729,1.25512,,,,,Europe/London,0
HPT,HOPTONH,Hopton Heath,0,52.39142,-2.91206,,,,,Europe/London,0
HRD,HRLNGRD,Harling Road,0,52.45369,0.90914,,,,,Europe/London,0
HRE,HORD,HORDEN,0,0,0,,,,,Europe/London,0
HRH,HORSHAM,Horsham,2,51.06606,-0.31927,,,,,Europe/London,0
HRL,HRLC,Harlech,0,52.86133,-4.10919,,,,,Europe/London,0
HRM,HRSM,Harrietsham,0,51.24483,0.6724,,,,,Europe/London,0
HRN,HRNSY,Hornsey,0,51.58646,-0.11197,,,,,Europe/London,0
HRO,HRLDWOD,Harold Wood,0,51.59277,0.23313,,,,,Europe/London,0
HRR,HNGT,Harrington,0,54.61348,-3.56551,,,,,Europe/London,0
HRS,HSFT,Horsforth,0,53.84771,-1.63023,,,,,Europe/London,0
HRW,HROW,Harrow & Wealdstone,2,51.59217,-0.33457,,,,,Europe/London,0
HRY,HRGYGL,Harringay Green Lanes,1,51.57718,-0.09814,,,,,Europe/London,0
HSB,HELSBY,Helsby,2,53.2752,-2.77121,,,,,Europe/London,0
HSC,HOSCAR,Hoscar,0,53.59777,-2.80442,,,,,Europe/London,0
HSD,HAMSTED,Hamstead (Birmingham),1,52.53107,-1.92898,,,,,Europe/London,0
HSG,HATHRSG,Hathersage,0,53.32577,-1.65172,,,,,Europe/London,0
HSK,HASOCKS,Hassocks,2,50.92462,-0.14595,,,,,Europe/London,0
HSL,HASLEMR,Haslemere,2,51.08865,-0.71916,,,,,Europe/London,0
HST,GLGHST,High Street (Glasgow),0,55.85956,-4.24012,,,,,Europe/London,0
HSW,HESWALL,Heswall,0,53.32972,-3.0737,,,,,Europe/London,0
HSY,HRSLEY,Horsley,0,51.27935,-0.43541,,,,,Europe/London,0
HTC,HTCP,Heaton Chapel,0,53.42556,-2.17904,,,,,Europe/London,0
HTE,HTCHEND,Hatch End,0,51.60942,-0.3686,,,,,Europe/London,0
HTF,HARTFD,Hartford,0,53.24176,-2.55363,,,,,Europe/London,0
HTH,HNDFRTH,Handforth,0,53.34649,-2.21363,,,,,Europe/London,0
HTM,MNCRHTM,HOLT TOWN MTLK,0,0,0,,,,,Europe/London,0
HTN,HATTON,Hatton (Warks),1,52.29528,-1.67298,,,,,Europe/London,0
HTO,HITN,Hightown,0,53.52511,-3.05707,,,,,Europe/London,0
HTR,HTRWCBS,Heathrow Central Bus Stn (Rail-Air),1,51.4711,-0.45331,,,,,Europe/London,0
HTW,HRTW,Hartwood,0,55.81148,-3.83932,,,,,Europe/London,0
HTY,HATRSLY,Hattersley,0,53.44528,-2.04031,,,,,Europe/London,0
HUB,HUNMNBY,Hunmanby,0,54.17393,-0.31456,,,,,Europe/London,0
HUD,HDRSFLD,Huddersfield,2,53.6485,-1.78469,,,,,Europe/London,0
HUL,HULL,Hull,2,53.74415,-0.34568,,,,,Europe/London,0
HUN,HNTNGDN,Huntingdon,2,52.32865,-0.19207,,,,,Europe/London,0
HUP,HMPHRYP,Humphrey Park,0,53.45223,-2.32754,,,,,Europe/London,0
HUR,HRSTGRN,Hurst Green,1,51.24443,0.00394,,,,,Europe/London,0
HUS,HNSTNTN,HUNSTANTON BUS,0,0,0,,,,,Europe/London,0
HUT,HTNCRNS,Hutton Cranswick,0,53.95586,-0.43386,,,,,Europe/London,0
HUU,HULLBS,HULL BUS STN,1,0,0,,,,,Europe/London,0
HUY,HUYTJUN,Huyton,9,53.40968,-2.84299,,,,,Europe/London,0
HVF,HAVRFDW,Haverfordwest,1,51.80263,-4.9602,,,,,Europe/London,0
HVH,HOEKVHL,HOEK VAN HOLLAND,0,0,0,,,,,Europe/London,0
HVN,HAVENHS,Havenhouse,0,53.11447,0.27317,,,,,Europe/London,0
HWA,HTRBUS2,HEATHROW T2 BUS,9,0,0,,,,,Europe/London,0
HWB,HAWDNBG,Hawarden Bridge,0,53.21807,-3.03272,,,,,Europe/London,0
HWC,HARWICH,Harwich Town,0,51.94415,1.28668,,,,,Europe/London,0
HWD,HAWARDN,Hawarden,0,53.18536,-3.03208,,,,,Europe/London,0
HWE,HTRBUS3,HEATHROW T3 BUS,9,0,0,,,,,Europe/London,0
HWF,HTRBUS4,HEATHROW TERMINAL 4 BUSES,1,0,0,,,,,Europe/London,0
HWH,HLTWHST,Haltwhistle,2,54.96785,-2.46356,,,,,Europe/London,0
HWI,HORWICH,Horwich Parkway,0,53.57811,-2.53967,,,,,Europe/London,0
HWM,HRLWMIL,Harlow Mill,0,51.79037,0.13231,,,,,Europe/London,0
HWN,HRLWTWN,Harlow Town,2,51.78107,0.09513,,,,,Europe/London,0
HWV,HTRWTM5,Heathrow Terminal 5,0,51.47005,-0.49059,,,,,Europe/London,0
HWW,HOWWOOD,How Wood (Herts),0,51.71774,-0.34467,,,,,Europe/London,0
HWX,HTRBUS5,Heathrow Terminal 5,0,51.47125,-0.48937,,,,,Europe/London,0
HWY,HWYCOMB,High Wycombe,2,51.62959,-0.74541,,,,,Europe/London,0
HXM,WROXHAM,Hoveton & Wroxham,0,52.71557,1.408,,,,,Europe/London,0
HXX,HTRWAPT,Heathrow Terminals 1-3,1,51.47185,-0.4541,,,,,Europe/London,0
HYB,HONYBRN,Honeybourne,0,52.1016,-1.83374,,,,,Europe/London,0
HYC,HYDEC,Hyde Central,0,53.45188,-2.08525,,,,,Europe/London,0
HYD,HEYFORD,Heyford,0,51.91919,-1.29927,,,,,Europe/London,0
HYH,CLCHHYT,Hythe (Essex),0,51.88564,0.92753,,,,,Europe/London,0
HYK,HOYLAKE,Hoylake,0,53.39021,-3.17883,,,,,Europe/London,0
HYL,HAYLE,Hayle,0,50.18556,-5.41984,,,,,Europe/London,0
HYM,HAYMRKT,Haymarket,2,55.94581,-3.21845,,,,,Europe/London,0
HYN,HYNDLND,Hyndland,1,55.87975,-4.31467,,,,,Europe/London,0
HYR,HYDNSRD,Haydons Road,0,51.42545,-0.18881,,,,,Europe/London,0
HYS,HAYS,Hayes (Kent),0,51.37633,0.01056,,,,,Europe/London,0
HYT,HYDEN,Hyde North,0,53.4648,-2.08546,,,,,Europe/London,0
HYW,HNCHLYW,Hinchley Wood,0,51.375,-0.34052,,,,,Europe/London,0
IFD,ILFORD,Ilford,2,51.55912,0.06968,,,,,Europe/London,0
IFI,IFIELD,Ifield,0,51.11562,-0.21477,,,,,Europe/London,0
IGD,IVRGRD,Invergordon,0,57.68902,-4.17484,,,,,Europe/London,0
ILK,ILKLEY,Ilkley,0,53.92476,-1.82203,,,,,Europe/London,0
ILN,ILKES,Ilkeston,0,52.97959,-1.29493,,,,,Europe/London,0
IMW,CSEAH,Imperial Wharf,0,51.47495,-0.18282,,,,,Europe/London,0
INC,INCE,Ince (Manchester),0,53.53891,-2.61152,,,,,Europe/London,0
INE,INEL,Ince & Elton,0,53.27661,-2.81652,,,,,Europe/London,0
ING,INVGWRE,Invergowrie,0,56.45647,-3.0574,,,,,Europe/London,0
INH,INVRSHN,Invershin,0,57.92487,-4.39948,,,,,Europe/London,0
INK,IVRKTHG,Inverkeithing,2,56.03468,-3.39619,,,,,Europe/London,0
INP,INVERKP,Inverkip,0,55.9061,-4.87259,,,,,Europe/London,0
INR,INVURIE,Inverurie,2,57.28627,-2.37356,,,,,Europe/London,0
INS,INSCH,Insch,0,57.3375,-2.61711,,,,,Europe/London,0
INT,INGTSTN,Ingatestone,2,51.66704,0.38425,,,,,Europe/London,0
INV,IVRNESS,Inverness,1,57.47987,-4.22336,,,,,Europe/London,0
IPS,IPSWICH,Ipswich,2,52.05059,1.14443,,,,,Europe/London,0
IRL,IRLAM,Irlam,0,53.43431,-2.43323,,,,,Europe/London,0
IRV,IRVN,Irvine,0,55.61087,-4.67515,,,,,Europe/London,0
ISL,ISLEWTH,Isleworth,0,51.47476,-0.33691,,,,,Europe/London,0
ISP,ISLIP,Islip,0,51.82575,-1.23818,,,,,Europe/London,0
IVR,IVER,Iver,0,51.5085,-0.50673,,,,,Europe/London,0
IVY,IVYBDGE,Ivybridge,0,50.39341,-3.9042,,,,,Europe/London,0
JCH,JAMCOK,James Cook,0,54.55203,-1.20857,,,,,Europe/London,0
JEQ,BHAMJEW,Jewellery Quarter,0,52.48943,-1.91321,,,,,Europe/London,0
JHN,JOHNSTN,Johnstone,1,55.83471,-4.50364,,,,,Europe/London,0
JOH,JHNSTND,Johnston (Pembrokeshire),0,51.75675,-4.99633,,,,,Europe/London,0
JOR,JORDANH,Jordanhill,0,55.88271,-4.32492,,,,,Europe/London,0
KBC,KINBRAC,Kinbrace,0,58.25831,-3.94121,,,,,Europe/London,0
KBF,KRKBYIF,Kirkby-in-Furness,0,54.23271,-3.18738,,,,,Europe/London,0
KBK,KTBK,Kents Bank,0,54.1729,-2.92523,,,,,Europe/London,0
KBM,MNCRKBM,KINGSWAY BP MTLK,0,0,0,,,,,Europe/London,0
KBN,KLBRNHR,Kilburn High Road,0,51.53728,-0.19224,,,,,Europe/London,0
KBW,KNEBWTH,Knebworth,0,51.86685,-0.18729,,,,,Europe/London,0
KBX,KIRBYX,Kirby Cross,0,51.8414,1.21499,,,,,Europe/London,0
KCK,KNCKHLT,Knockholt,0,51.34579,0.13085,,,,,Europe/London,0
KDB,KIDBROK,Kidbrooke,0,51.46212,0.0275,,,,,Europe/London,0
KDG,KIDSGRV,Kidsgrove,2,53.08657,-2.24482,,,,,Europe/London,0
KDR,CATZKDR,KILDARE     (CIE,1,0,0,,,,,Europe/Dublin,0
KDY,KCLD,Kirkcaldy,1,56.11206,-3.16703,,,,,Europe/London,0
KEB,KNLYBUS,Kenley - Kenley Hotel,1,51.32561,-0.1001,,,,,Europe/London,0
KEH,KEITH,Keith,1,57.5509,-2.95407,,,,,Europe/London,0
KEI,KEIGHLY,Keighley,2,53.86796,-1.90165,,,,,Europe/London,0
KEL,KELVEDN,Kelvedon,0,51.8407,0.70239,,,,,Europe/London,0
KEM,KEMBLE,Kemble,1,51.677,-2.02282,,,,,Europe/London,0
KEN,KENDAL,Kendal,0,54.3321,-2.73965,,,,,Europe/London,0
KET,KETR,Kettering,1,52.39355,-0.73156,,,,,Europe/London,0
KEY,KEYHAM,Keyham,1,50.38988,-4.1796,,,,,Europe/London,0
KEZ,PBROKET,KETTERING PB BUS,0,0,0,,,,,Europe/London,0
KGE,KNGW,Kingsknowe,0,55.91881,-3.26497,,,,,Europe/London,0
KGH,KGHN,Kinghorn,0,56.06934,-3.17415,,,,,Europe/London,0
KGL,KLGL,Kings Langley,0,51.70636,-0.43842,,,,,Europe/London,0
KGM,KINGHAM,Kingham,1,51.90225,-1.62879,,,,,Europe/London,0
KGN,KNYMPTN,Kings Nympton,0,50.93607,-3.90541,,,,,Europe/London,0
KGP,KGPK,Kings Park,1,55.81954,-4.24652,,,,,Europe/London,0
KGS,KINSSTN,Kings Sutton,1,52.02135,-1.28093,,,,,Europe/London,0
KGT,KILGETY,Kilgetty,0,51.73211,-4.71516,,,,,Europe/London,0
KGX,KNGX,London Kings Cross,3,51.53088,-0.12293,,,,,Europe/London,0
KID,KDRMNST,Kidderminster,1,52.38448,-2.23847,,,,,Europe/London,0
KIL,KILDONN,Kildonan,0,58.17081,-3.86911,,,,,Europe/London,0
KIN,KGUSSIE,Kingussie,1,57.07778,-4.05219,,,,,Europe/London,0
KIR,KKBY,Kirkby,2,53.48619,-2.90283,,,,,Europe/London,0
KIT,KNTBRY,Kintbury,0,51.40252,-1.44599,,,,,Europe/London,0
KIV,KVTNBDG,Kiveton Bridge,0,53.34096,-1.26718,,,,,Europe/London,0
KKB,KRKYCEN,Kirkby in Ashfield,1,53.1001,-1.25306,,,,,Europe/London,0
KKD,KRKDALE,Kirkdale,1,53.4409,-2.98112,,,,,Europe/London,0
KKH,KRKH,Kirkhill,0,55.81391,-4.1671,,,,,Europe/London,0
KKM,KIRKHAM,Kirkham & Wesham,1,53.78692,-2.88294,,,,,Europe/London,0
KKN,KRKNWTN,Kirknewton,1,55.88869,-3.43251,,,,,Europe/London,0
KKS,KKSNDAL,Kirk Sandall,0,53.56388,-1.07406,,,,,Europe/London,0
KLB,PBROKLB,KINGS LYNN COACH,0,0,0,,,,,Europe/London,0
KLD,KLDL,Kildale,0,54.47776,-1.06814,,,,,Europe/London,0
KLF,KRKSLFR,Kirkstall Forge,0,53.82372,-1.62248,,,,,Europe/London,0
KLL,KILARNY,KILLARNEY   (CIE,0,0,0,,,,,Europe/Dublin,0
KLM,KLMAURS,Kilmaurs,0,55.63721,-4.53049,,,,,Europe/London,0
KLN,KLYNN,Kings Lynn,1,52.75392,0.40345,,,,,Europe/London,0
KLS,KLYNBUS,KINGS LYNN BUSGN,1,0,0,,,,,Europe/London,0
KLY,KNLY,Kenley,0,51.32478,-0.10093,,,,,Europe/London,0
KMH,KMPSTNH,Kempston Hardwick,0,52.09222,-0.50391,,,,,Europe/London,0
KMK,KILMRNK,Kilmarnock,2,55.61212,-4.49868,,,,,Europe/London,0
KML,KMSLY,Kemsley,0,51.36244,0.73536,,,,,Europe/London,0
KMP,KMPTNPK,Kempton Park,0,51.42098,-0.40975,,,,,Europe/London,0
KMS,KEMSING,Kemsing,0,51.29719,0.24743,,,,,Europe/London,0
KNA,KNRSBGH,Knaresborough,0,54.00902,-1.47042,,,,,Europe/London,0
KND,KGWD,Kingswood,0,51.29472,-0.21125,,,,,Europe/London,0
KNE,KENNETT,Kennett,0,52.27726,0.49046,,,,,Europe/London,0
KNF,KNUTSFD,Knutsford,0,53.30179,-2.37179,,,,,Europe/London,0
KNG,KGSTON,Kingston,2,51.41275,-0.30117,,,,,Europe/London,0
KNI,KNIGHTN,Knighton,0,52.34507,-3.0422,,,,,Europe/London,0
KNL,KENSLG,Kensal Green,0,51.53054,-0.22509,,,,,Europe/London,0
KNN,KNORTON,Kings Norton,0,52.41429,-1.93233,,,,,Europe/London,0
KNO,KNTNGLY,Knottingley,1,53.70654,-1.25918,,,,,Europe/London,0
KNR,KENR,Kensal Rise,0,51.53455,-0.21996,,,,,Europe/London,0
KNS,KENISHD,Kennishead,0,55.81332,-4.32525,,,,,Europe/London,0
KNT,KTON,Kenton,0,51.5818,-0.31698,,,,,Europe/London,0
KNU,KNUCKLS,Knucklas,0,52.35986,-3.09688,,,,,Europe/London,0
KNW,KENLSTN,KENILWORTH,0,0,0,,,,,Europe/London,0
KNY,CATZKNY,KILKENNY    (CIE,0,0,0,,,,,Europe/Dublin,0
KPA,KENOLYM,Kensington (Olympia),3,51.4979,-0.21036,,,,,Europe/London,0
KPT,KLPTRCK,Kilpatrick,0,55.9247,-4.45341,,,,,Europe/London,0
KRK,KRKC,Kirkconnel,0,55.3883,-3.9985,,,,,Europe/London,0
KSL,KEARSLY,Kearsley,0,53.54414,-2.37512,,,,,Europe/London,0
KSN,KSNY,Kearsney,0,51.14938,1.27206,,,,,Europe/London,0
KSW,KSTP,Kirkby Stephen,0,54.45486,-2.3686,,,,,Europe/London,0
KTH,KENTHOS,Kent House,1,51.41222,-0.04525,,,,,Europe/London,0
KTL,KRTNLND,Kirton Lindsey,0,53.48484,-0.59391,,,,,Europe/London,0
KTN,KNTSHTN,Kentish Town,1,51.55049,-0.14036,,,,,Europe/London,0
KTR,KINTORE,KINTORE,0,0,0,,,,,Europe/London,0
KTW,KNTSHTW,Kentish Town West,0,51.54655,-0.14666,,,,,Europe/London,0
KVD,DAWSHLM,Kelvindale,0,55.89356,-4.30957,,,,,Europe/London,0
KVP,KVTNPK,Kiveton Park,0,53.33671,-1.23984,,,,,Europe/London,0
KWB,KEWBDGE,Kew Bridge,1,51.48951,-0.28711,,,,,Europe/London,0
KWD,KRKWOOD,Kirkwood,0,55.85419,-4.0484,,,,,Europe/London,0
KWG,KEWGRDN,Kew Gardens,0,51.47707,-0.28505,,,,,Europe/London,0
KWL,KIDWELY,Kidwelly,0,51.73434,-4.31699,,,,,Europe/London,0
KWN,KILWNNG,Kilwinning,1,55.65595,-4.71002,,,,,Europe/London,0
KWR,DMTHKWR,KINGSWEAR,1,0,0,,,,,Europe/London,0
KYL,KYLELSH,Kyle of Lochalsh,1,57.27977,-5.71381,,,,,Europe/London,0
KYN,KEYNSCH,Keynsham,9,51.41798,-2.49563,,,,,Europe/London,0
LAC,LNCG,Lancing,0,50.82708,-0.32311,,,,,Europe/London,0
LAD,LDYW,Ladywell,1,51.45624,-0.01904,,,,,Europe/London,0
LAG,LGWITH,Langwith - Whaley Thorns,0,53.23238,-1.20926,,,,,Europe/London,0
LAI,LAINDON,Laindon,1,51.56752,0.42429,,,,,Europe/London,0
LAK,LAKNHTH,Lakenheath,0,52.4474,0.5352,,,,,Europe/London,0
LAM,LAMPHEY,Lamphey,0,51.66719,-4.87326,,,,,Europe/London,0
LAN,LANCSTR,Lancaster,3,54.04873,-2.80746,,,,,Europe/London,0
LAP,LAPFORD,Lapford,0,50.857,-3.81064,,,,,Europe/London,0
LAR,LARGS,Largs,1,55.79274,-4.8672,,,,,Europe/London,0
LAS,LLNSMLT,Llansamlet,0,51.6615,-3.88469,,,,,Europe/London,0
LAU,LRNCKRK,Laurencekirk,0,56.83635,-2.46593,,,,,Europe/London,0
LAW,LNDYW,Landywood,0,52.65654,-2.02073,,,,,Europe/London,0
LAY,LAYTON,Layton (Lancs),0,53.83527,-3.02999,,,,,Europe/London,0
LBG,LNDNBDC,London Bridge,9,51.50511,-0.08609,,,,,Europe/London,0
LBK,LNGBKBY,Long Buckby,1,52.29472,-1.08647,,,,,Europe/London,0
LBN,CATZLBN,LISBURN NI,0,0,0,,,,,Europe/London,0
LBO,LOGHBRO,Loughborough (Leics),2,52.77895,-1.19593,,,,,Europe/London,0
LBR,LBDR,Llanbedr,0,52.82085,-4.1102,,,,,Europe/London,0
LBT,LARBERT,Larbert,1,56.0227,-3.83058,,,,,Europe/London,0
LBZ,LTNBZRD,Leighton Buzzard,2,51.91631,-0.67701,,,,,Europe/London,0
LCA,CATZ014,LEEDS CASTLE,0,0,0,,,,,Europe/London,0
LCB,LCHBSDL,LOCHBOISDALE,0,0,0,,,,,Europe/London,0
LCC,LCHLCHR,Lochluichart,0,57.62176,-4.80905,,,,,Europe/London,0
LCG,LCHGLLY,Lochgelly,0,56.13533,-3.31294,,,,,Europe/London,0
LCK,LKWD,Lockwood,0,53.63473,-1.80079,,,,,Europe/London,0
LCL,LCHALRT,Lochailort,0,56.88096,-5.66339,,,,,Europe/London,0
LCN,LINCLNC,Lincoln Central,1,53.22609,-0.53992,,,,,Europe/London,0
LCS,LCHESDE,Locheilside,0,56.85541,-5.29004,,,,,Europe/London,0
LDN,LNDW,Llandanwg,0,52.83616,-4.12386,,,,,Europe/London,0
LDR,LDRY,LONDONDERRY NI,0,0,0,,,,,Europe/London,0
LDS,LEEDS,Leeds,2,53.79563,-1.54803,,,,,Europe/London,0
LDW,MNCRLDW,LADYWELL MTLK,1,0,0,,,,,Europe/London,0
LDY,LADYBNK,Ladybank,1,56.27378,-3.12228,,,,,Europe/London,0
LEA,LEAGRVE,Leagrave,1,51.90516,-0.4585,,,,,Europe/London,0
LEB,LEABDGE,Lea Bridge,0,51.56655,-0.03667,,,,,Europe/London,0
LED,LDBURY,Ledbury,0,52.04525,-2.42586,,,,,Europe/London,0
LEE,LEEE,Lee,0,51.44975,0.01349,,,,,Europe/London,0
LEG,LEGR,Lea Green,0,53.42681,-2.72498,,,,,Europe/London,0
LEH,LEAHALL,Lea Hall,0,52.48064,-1.78601,,,,,Europe/London,0
LEI,LESTER,Leicester,2,52.63143,-1.12528,,,,,Europe/London,0
LEL,LELANT,Lelant,0,50.18412,-5.43655,,,,,Europe/London,0
LEM,LEYTNMR,Leyton Midland Road,0,51.56973,-0.00805,,,,,Europe/London,0
LEN,LENHAM,Lenham,2,51.23449,0.70776,,,,,Europe/London,0
LEO,LEOMBUS,Leominster,9,52.22568,-2.73034,,,,,Europe/London,0
LER,LYTNSHR,Leytonstone High Road,0,51.56355,0.00842,,,,,Europe/London,0
LES,LHONSEA,Leigh-on-Sea,1,51.54127,0.64041,,,,,Europe/London,0
LET,LTCE,Letchworth,2,51.97996,-0.22926,,,,,Europe/London,0
LEU,LEUCHRS,Leuchars,1,56.3751,-2.89371,,,,,Europe/London,0
LEW,LEWISHM,Lewisham,2,51.46569,-0.01402,,,,,Europe/London,0
LEY,LEYLAND,Leyland,2,53.69885,-2.68715,,,,,Europe/London,0
LFD,LINGFLD,Lingfield,0,51.17645,-0.00716,,,,,Europe/London,0
LFL,LEIGBUS,Leigh (Kent) - Fleur de Lis PH,1,51.19594,0.21188,,,,,Europe/London,0
LFO,CATZLFO,LONGFORD    (CIE,1,0,0,,,,,Europe/Dublin,0
LGB,LGBK,Langbank,0,55.92452,-4.58527,,,,,Europe/London,0
LGD,LGWOOD,Lingwood,0,52.6221,1.48994,,,,,Europe/London,0
LGE,LNGEATN,Long Eaton,1,52.88499,-1.28752,,,,,Europe/London,0
LGF,LGFD,Longfield,0,51.39616,0.30036,,,,,Europe/London,0
LGG,LGRN,Langley Green,0,52.49387,-2.00496,,,,,Europe/London,0
LGJ,LBGHJN,Loughborough Junction,0,51.4663,-0.10218,,,,,Europe/London,0
LGK,LONGBCK,Longbeck,0,54.58922,-1.03047,,,,,Europe/London,0
LGM,LGML,Langley Mill,0,53.01806,-1.33124,,,,,Europe/London,0
LGN,LNTN,Longton,0,52.98995,-2.13701,,,,,Europe/London,0
LGO,LLGUNLO,Llangynllo,0,52.34963,-3.16137,,,,,Europe/London,0
LGS,LNSD,Langside,1,55.82113,-4.27734,,,,,Europe/London,0
LGW,LWBY,Langwathby,0,54.69436,-2.66368,,,,,Europe/London,0
LHA,LOCHAWE,Loch Awe,0,56.40202,-5.04198,,,,,Europe/London,0
LHD,LETHRHD,Leatherhead,2,51.29882,-0.33323,,,,,Europe/London,0
LHE,LCEILOB,Loch Eil Outward Bound,0,56.85527,-5.19158,,,,,Europe/London,0
LHM,LEALHLM,Lealholm,0,54.46059,-0.82572,,,,,Europe/London,0
LHO,LGHO,Langho,0,53.80483,-2.44866,,,,,Europe/London,0
LHS,LIMHSE,Limehouse,1,51.51254,-0.0398,,,,,Europe/London,0
LHW,LCHWNCH,Lochwinnoch,0,55.78716,-4.61608,,,,,Europe/London,0
LIC,LCHC,Lichfield City,2,52.68015,-1.82542,,,,,Europe/London,0
LID,LDLNGTN,Lidlington,0,52.04154,-0.55893,,,,,Europe/London,0
LIE,LEISTON,LEISTON-BUS 64,0,0,0,,,,,Europe/London,0
LIH,LEIGHK,Leigh (Kent),0,51.1939,0.2105,,,,,Europe/London,0
LIN,LNLTHGW,Linlithgow,1,55.97645,-3.59585,,,,,Europe/London,0
LIP,LIPHOOK,Liphook,1,51.07132,-0.80023,,,,,Europe/London,0
LIS,LISS,Liss,0,51.04357,-0.89287,,,,,Europe/London,0
LIT,LTLHMPT,Littlehampton,2,50.81011,-0.54599,,,,,Europe/London,0
LIV,LVRPLSH,Liverpool Lime Street,2,53.40731,-2.97773,,,,,Europe/London,0
LJL,LVRPJLA,LPOOL AIRPRT BUS,0,0,0,,,,,Europe/London,0
LJN,LIMERCJ,LIMERICK JUNCTION (CIE,1,0,0,,,,,Europe/Dublin,0
LKE,LAKEIOW,Lake (Isle of Wight),0,50.64648,-1.16635,,,,,Europe/London,0
LLA,LNAB,Llanaber,0,52.7415,-4.07718,,,,,Europe/London,0
LLC,LNDC,Llandecwyn,0,52.92068,-4.05703,,,,,Europe/London,0
LLD,LUDO,Llandudno,0,53.32092,-3.827,,,,,Europe/London,0
LLE,LLNLLI,Llanelli,1,51.67387,-4.1613,,,,,Europe/London,0
LLF,LANFRFC,Llanfairfechan,0,53.25729,-3.9832,,,,,Europe/London,0
LLG,LLGADOG,Llangadog,0,51.94021,-3.89315,,,,,Europe/London,0
LLH,LLGNNCH,Llangennech,0,51.69114,-4.07893,,,,,Europe/London,0
LLI,LLDYBIE,Llandybie,0,51.82104,-4.00365,,,,,Europe/London,0
LLJ,LANDUDJ,Llandudno Junction,2,53.28394,-3.8091,,,,,Europe/London,0
LLL,LLDEILO,Llandeilo,0,51.88534,-3.98689,,,,,Europe/London,0
LLM,LLGMMRW,Llangammarch,0,52.1143,-3.55482,,,,,Europe/London,0
LLN,LLANDAF,Llandaf,0,51.50844,-3.22861,,,,,Europe/London,0
LLO,LLDODW,Llandrindod,1,52.24236,-3.37914,,,,,Europe/London,0
LLR,LLHARAN,Llanharan,0,51.53759,-3.44078,,,,,Europe/London,0
LLS,LLISHEN,Llanishen,0,51.53275,-3.18198,,,,,Europe/London,0
LLT,LLBSTRD,Llanbister Road,0,52.33643,-3.21342,,,,,Europe/London,0
LLV,LLDVERY,Llandovery,2,51.99531,-3.80283,,,,,Europe/London,0
LLW,LYNGRIL,Llwyngwril,0,52.66678,-4.08768,,,,,Europe/London,0
LLY,LLWYNYP,Llwynypia,0,51.634,-3.45351,,,,,Europe/London,0
LMN,CATZ009,LONG MARSTON,9,0,0,,,,,Europe/London,0
LMR,LOWMOOR,Low Moor,0,53.74993,-1.7534,,,,,Europe/London,0
LMS,LMNGTNS,Leamington Spa,2,52.28449,-1.53621,,,,,Europe/London,0
LNB,LLBRDCH,Llanbradach,0,51.60326,-3.23305,,,,,Europe/London,0
LND,LNGNDRY,Longniddry,0,55.97648,-2.88834,,,,,Europe/London,0
LNE,LONDINT,LONDON INTERNATIONAL(CIV),1,0,0,,,,,Europe/London,0
LNG,LNGCROS,Longcross,0,51.38517,-0.59457,,,,,Europe/London,0
LNK,LANARK,Lanark,1,55.67361,-3.77329,,,,,Europe/London,0
LNR,LLWRDA,Llanwrda,0,51.96259,-3.87167,,,,,Europe/London,0
LNW,LLWRTYW,Llanwrtyd,0,52.10471,-3.63216,,,,,Europe/London,0
LNY,LANGLEY,Langley (Berks),1,51.50806,-0.54176,,,,,Europe/London,0
LNZ,LENZIE,Lenzie,1,55.92132,-4.15389,,,,,Europe/London,0
LOB,LONB,Longbridge,1,52.39642,-1.98129,,,,,Europe/London,0
LOC,LCKRBIE,Lockerbie,2,55.12305,-3.35353,,,,,Europe/London,0
LOE,LONDEUR,LONDON EUROSTAR CIV,1,0,0,,,,,Europe/London,0
LOF,LONFLDS,London Fields,0,51.54115,-0.05775,,,,,Europe/London,0
LOH,LSTH,Lostock Hall,0,53.72424,-2.68748,,,,,Europe/London,0
LOO,LOOE,Looe,0,50.35923,-4.45616,,,,,Europe/London,0
LOS,LSTWTHL,Lostwithiel,0,50.40718,-4.66597,,,,,Europe/London,0
LOT,LOSTCKP,Lostock,0,53.57293,-2.49427,,,,,Europe/London,0
LOW,LOWDHAM,Lowdham,0,53.00628,-0.99842,,,,,Europe/London,0
LPG,LFPW,Llanfairpwll,0,53.22095,-4.20922,,,,,Europe/London,0
LPO,CATZLPO,LYME REGIS BUS X53,0,0,0,,,,,Europe/London,0
LPR,LPRESTN,Long Preston,1,54.01684,-2.25559,,,,,Europe/London,0
LPT,LNGP,Longport,0,53.04188,-2.21645,,,,,Europe/London,0
LPW,LAPWRTH,Lapworth,0,52.34225,-1.72569,,,,,Europe/London,0
LPY,LVRPSPY,Liverpool South Parkway,2,53.35774,-2.88914,,,,,Europe/London,0
LRB,BRGHLRD,London Road (Brighton),0,50.83666,-0.1365,,,,,Europe/London,0
LRD,LRDGFD,London Road (Guildford),0,51.24065,-0.56507,,,,,Europe/London,0
LRG,LAIRG,Lairg,0,58.00183,-4.39989,,,,,Europe/London,0
LRH,LARKHAL,Larkhall,0,55.7386,-3.97551,,,,,Europe/London,0
LRK,LIMERIC,LIMERICK    (CIE,1,0,0,,,,,Europe/Dublin,0
LRR,BRGHBUS,London Road Brighton - Ditchling Rise,1,50.83616,-0.13631,,,,,Europe/London,0
LSK,LISKARD,Liskeard,1,50.44686,-4.46958,,,,,Europe/London,0
LSN,LVNSTNN,Livingston North,0,55.90138,-3.54435,,,,,Europe/London,0
LST,LIVSTLL,London Liverpool Street,9,51.51799,-0.08143,,,,,Europe/London,0
LSW,LEASOWE,Leasowe,0,53.40805,-3.09959,,,,,Europe/London,0
LSY,LSYDNHM,Lower Sydenham,0,51.42483,-0.03335,,,,,Europe/London,0
LTG,LSTG,Lostock Gralam,0,53.26766,-2.4652,,,,,Europe/London,0
LTH,LLHLETH,Llanhilleth,0,51.7003,-3.13519,,,,,Europe/London,0
LTK,LTLKMBL,Little Kimble,0,51.75223,-0.80845,,,,,Europe/London,0
LTL,LITLBRO,Littleborough,1,53.643,-2.09465,,,,,Europe/London,0
LTM,LYTHAM,Lytham,0,53.73928,-2.96404,,,,,Europe/London,0
LTN,LUTOAPY,Luton Airport Parkway,2,51.87244,-0.39588,,,,,Europe/London,0
LTP,LTLPORT,Littleport,0,52.46238,0.31656,,,,,Europe/London,0
LTR,LMPTBLL,LAMPETER,0,0,0,,,,,Europe/London,0
LTS,LELANTS,Lelant Saltings,0,50.17878,-5.44093,,,,,Europe/London,0
LTT,LTLSUTN,Little Sutton,0,53.28551,-2.94329,,,,,Europe/London,0
LTV,LCHTNJ,Lichfield Trent Valley,9,52.68689,-1.80023,,,,,Europe/London,0
LUA,LUTNAIR,LUTON AIRPORT,0,0,0,,,,,Europe/London,0
LUB,LUTOBUS,LUTON BUS,1,0,0,,,,,Europe/London,0
LUD,LUDLCST,Ludlow,9,52.37128,-2.71622,,,,,Europe/London,0
LUT,LUTON,Luton,2,51.8823,-0.41404,,,,,Europe/London,0
LUX,LUXULYN,Luxulyan,0,50.39004,-4.74738,,,,,Europe/London,0
LVC,LVRPLCH,Liverpool Central,2,53.4046,-2.97917,,,,,Europe/London,0
LVG,LVNSTNS,Livingston South,0,55.87169,-3.50157,,,,,Europe/London,0
LVJ,JAMESST,Liverpool James Street,1,53.40476,-2.99196,,,,,Europe/London,0
LVM,LVHM,Levenshulme,0,53.44416,-2.19267,,,,,Europe/London,0
LVN,LHVN,Littlehaven,0,51.07975,-0.30798,,,,,Europe/London,0
LVS,LVRPLSG,LIVERPOOL LND SG,1,0,0,,,,,Europe/London,0
LVT,LTHH,Lisvane & Thornhill,0,51.54458,-3.1856,,,,,Europe/London,0
LWH,LAWRNCH,Lawrence Hill,0,51.45801,-2.56443,,,,,Europe/London,0
LWM,LLNWTMR,Llantwit Major,0,51.40975,-3.48162,,,,,Europe/London,0
LWR,LNRWST,Llanrwst,0,53.13885,-3.7944,,,,,Europe/London,0
LWS,LEWES,Lewes,2,50.87063,0.01133,,,,,Europe/London,0
LWT,LOWSTFT,Lowestoft,1,52.47444,1.74971,,,,,Europe/London,0
LWY,MNCRLWY,LANGWORTHY MTLK,1,0,0,,,,,Europe/London,0
LYC,LYMPSTC,Lympstone Commando,0,50.66224,-3.44084,,,,,Europe/London,0
LYD,LYDNEY,Lydney,1,51.71414,-2.53086,,,,,Europe/London,0
LYE,LYEE,Lye (West Midlands),0,52.45992,-2.11593,,,,,Europe/London,0
LYM,LYMPSTN,Lympstone Village,0,50.64829,-3.43101,,,,,Europe/London,0
LYP,LMTNPIR,Lymington Pier,1,50.7583,-1.52945,,,,,Europe/London,0
LYT,LMTNTWN,Lymington Town,0,50.76091,-1.53716,,,,,Europe/London,0
LZB,LAZKRKO,Lazonby & Kirkoswald,0,54.75044,-2.70321,,,,,Europe/London,0
MAC,MACLSFD,Macclesfield,1,53.25934,-2.12198,,,,,Europe/London,0
MAE,CATZMAE,MAYNOOTH    (CIE,0,0,0,,,,,Europe/Dublin,0
MAG,MAGHULL,Maghull,0,53.50647,-2.93085,,,,,Europe/London,0
MAI,MDNHEAD,Maidenhead,1,51.51867,-0.72266,,,,,Europe/London,0
MAJ,CATZMAJ,MANULLA JN  (CIE,1,0,0,,,,,Europe/Dublin,0
MAL,MALDENM,Malden Manor,0,51.38473,-0.26127,,,,,Europe/London,0
MAN,MNCRPIC,Manchester Piccadilly,2,53.47736,-2.23091,,,,,Europe/London,0
MAO,MHERON,Martins Heron,0,51.40741,-0.7244,,,,,Europe/London,0
MAR,MARGATE,Margate,1,51.38543,1.372,,,,,Europe/London,0
MAS,MANORS,Manors,0,54.97276,-1.60474,,,,,Europe/London,0
MAT,MATLOCK,Matlock,0,53.13841,-1.55891,,,,,Europe/London,0
MAU,MLDTHRD,Mauldeth Road,0,53.43306,-2.20925,,,,,Europe/London,0
MAW,MALLOW,MALLOW      (CIE,1,0,0,,,,,Europe/Dublin,0
MAX,MAXWLPK,Maxwell Park,0,55.83773,-4.28869,,,,,Europe/London,0
MAY,MAYBOLE,Maybole,0,55.35474,-4.68529,,,,,Europe/London,0
MBH,CATZMBH,MUINE BHEAG (CIE,0,0,0,,,,,Europe/Dublin,0
MBK,MBRK,Millbrook (Hants),0,50.9115,-1.43384,,,,,Europe/London,0
MBR,MDLSBRO,Middlesbrough,1,54.57911,-1.23472,,,,,Europe/London,0
MCB,MLSECMB,Moulsecoomb,0,50.84672,-0.11884,,,,,Europe/London,0
MCE,GTSHDMC,Metrocentre,1,54.95875,-1.66563,,,,,Europe/London,0
MCF,MCFMTLK,MARTINSCTFT MTLK,0,0,0,,,,,Europe/London,0
MCH,MRCH,March,0,52.55989,0.0912,,,,,Europe/London,0
MCM,MORCAME,Morecambe,0,54.07032,-2.86931,,,,,Europe/London,0
MCN,MCHYNLT,Machynlleth,2,52.59514,-3.85453,,,,,Europe/London,0
MCO,MNCROXR,Manchester Oxford Road,2,53.47403,-2.242,,,,,Europe/London,0
MCT,MNCRMCT,MEDIA CITY MTLK,1,0,0,,,,,Europe/London,0
MCV,MNCRVIC,Manchester Victoria,2,53.48747,-2.2426,,,,,Europe/London,0
MCZ,CATZMCZ,MANCHESTER CTLZ,1,0,0,,,,,Europe/London,0
MDB,MSTONEB,Maidstone Barracks,2,51.27717,0.51396,,,,,Europe/London,0
MDE,MSTONEE,Maidstone East,2,51.27783,0.5213,,,,,Europe/London,0
MDG,MIDGHAM,Midgham,0,51.39597,-1.17771,,,,,Europe/London,0
MDL,MDWD,Middlewood,0,53.35996,-2.08335,,,,,Europe/London,0
MDM,MRDMTLK,MOOR ROAD MTLK,0,0,0,,,,,Europe/London,0
MDN,MDNNWTN,Maiden Newton,1,50.78001,-2.56943,,,,,Europe/London,0
MDS,MORDENS,Morden South,0,51.39612,-0.19946,,,,,Europe/London,0
MDW,MSTONEW,Maidstone West,2,51.27047,0.51577,,,,,Europe/London,0
MEC,MEOLSCP,Meols Cop,0,53.64627,-2.9758,,,,,Europe/London,0
MEL,MELDRTH,Meldreth,0,52.09072,0.00894,,,,,Europe/London,0
MEN,MENHENT,Menheniot,0,50.42623,-4.40922,,,,,Europe/London,0
MEO,MELS,Meols,0,53.39944,-3.15427,,,,,Europe/London,0
MEP,MEOPHAM,Meopham,2,51.38642,0.35695,,,,,Europe/London,0
MER,MERTHYR,Merthyr Tydfil,0,51.74462,-3.37725,,,,,Europe/London,0
MES,MELTON,Melton (Suffolk),0,52.10444,1.33824,,,,,Europe/London,0
MEV,MERTHRV,Merthyr Vale,0,51.68665,-3.33658,,,,,Europe/London,0
MEW,MAESTER,Maesteg (Ewenny Road),0,51.60534,-3.64899,,,,,Europe/London,0
MEX,MEXBRGH,Mexborough,0,53.49099,-1.28856,,,,,Europe/London,0
MEY,MRRYTON,Merryton,0,55.74871,-3.97825,,,,,Europe/London,0
MFA,MFAM,Morfa Mawddach,0,52.70713,-4.03217,,,,,Europe/London,0
MFF,MINFORD,Minffordd,0,52.92613,-4.08497,,,,,Europe/London,0
MFH,MLFDHVN,Milford Haven,0,51.71497,-5.04097,,,,,Europe/London,0
MFL,MTFL,Mount Florida,1,55.82656,-4.26113,,,,,Europe/London,0
MFT,MFLDTWN,Mansfield,0,53.1421,-1.19843,,,,,Europe/London,0
MGM,MTHRNGH,Metheringham,0,53.13888,-0.39145,,,,,Europe/London,0
MGN,MRSTNGR,Marston Green,0,52.46719,-1.75561,,,,,Europe/London,0
MHM,MERSTHM,Merstham,0,51.26415,-0.15023,,,,,Europe/London,0
MHR,MRKTHRB,Market Harborough,0,52.47972,-0.90933,,,,,Europe/London,0
MHS,MEADWHL,Meadowhall,2,53.41747,-1.41285,,,,,Europe/London,0
MIA,MNCRIAP,Manchester Airport,2,53.36504,-2.27298,,,,,Europe/London,0
MIC,MCHLDVR,Micheldever,0,51.18239,-1.26068,,,,,Europe/London,0
MIE,CATZMIE,MILLSTREET  (CIE,0,0,0,,,,,Europe/Dublin,0
MIH,MLSHILL,Mills Hill (Manchester),0,53.55131,-2.17151,,,,,Europe/London,0
MIJ,MITCHMJ,Mitcham Junction,1,51.39295,-0.15776,,,,,Europe/London,0
MIK,MCKLFLD,Micklefield,2,53.78884,-1.32679,,,,,Europe/London,0
MIL,MLHB,Mill Hill Broadway,0,51.61309,-0.24924,,,,,Europe/London,0
MIM,MINMARS,Moreton-in-Marsh,1,51.99228,-1.70038,,,,,Europe/London,0
MIN,MILKNPK,Milliken Park,0,55.82511,-4.53336,,,,,Europe/London,0
MIR,MIRFEJN,Mirfield,9,53.6714,-1.69255,,,,,Europe/London,0
MIS,MISTLEY,Mistley,0,51.94363,1.0814,,,,,Europe/London,0
MKC,MKNSCEN,Milton Keynes Central,2,52.03429,-0.77415,,,,,Europe/London,0
MKM,MELKSHM,Melksham,0,51.37982,-2.1445,,,,,Europe/London,0
MKR,MKTR,Market Rasen,1,53.38391,-0.3369,,,,,Europe/London,0
MKT,MRKSTEY,Marks Tey,1,51.88094,0.78333,,,,,Europe/London,0
MLB,MLBRKB,Millbrook (Beds),0,52.05384,-0.5327,,,,,Europe/London,0
MLD,MLDSWTH,Mouldsworth,0,53.23181,-2.73222,,,,,Europe/London,0
MLF,MLFORD,Milford (Surrey),0,51.16332,-0.63695,,,,,Europe/London,0
MLG,MLAIG,Mallaig,1,57.00599,-5.8296,,,,,Europe/London,0
MLH,MLHL,Mill Hill (Lancs),0,53.73546,-2.50174,,,,,Europe/London,0
MLM,MLLM,Millom,0,54.21082,-3.27108,,,,,Europe/London,0
MLN,MLGV,Milngavie,0,55.94137,-4.31458,,,,,Europe/London,0
MLR,MILNROW,MILNROW MTLK,0,0,0,,,,,Europe/London,0
MLS,MELROSE,MELROSE,0,0,0,,,,,Europe/London,0
MLT,MALTON,Malton,0,54.13208,-0.79722,,,,,Europe/London,0
MLW,MARLOW,Marlow,0,51.57099,-0.76643,,,,,Europe/London,0
MLY,MRLY,Morley,0,53.74992,-1.59098,,,,,Europe/London,0
MMO,MLTNSDG,Melton Mowbray,1,52.76103,-0.88587,,,,,Europe/London,0
MNA,MNCMTLK,MAN AIRPORT MTLK,0,0,0,,,,,Europe/London,0
MNC,MKIN,Markinch,2,56.20102,-3.13079,,,,,Europe/London,0
MNE,MANEA,Manea,0,52.49784,0.17769,,,,,Europe/London,0
MNG,MANNGTR,Manningtree,2,51.94905,1.04524,,,,,Europe/London,0
MNN,MENSTON,Menston,0,53.89234,-1.73551,,,,,Europe/London,0
MNP,MANRPK,Manor Park,0,51.55248,0.04634,,,,,Europe/London,0
MNR,MNRD,Manor Road,0,53.39478,-3.17144,,,,,Europe/London,0
MNS,MAGHNTH,Maghull North,0,53.5168,-2.9409,,,,,Europe/London,0
MOB,MOBERLY,Mobberley,0,53.32914,-2.33367,,,,,Europe/London,0
MOG,MRGT,Moorgate,3,51.51849,-0.08894,,,,,Europe/London,0
MOM,CATZMOM,EDGEWORTHSTOWN (CIE),0,0,0,,,,,Europe/Dublin,0
MON,MONIFTH,Monifieth,0,56.48011,-2.81825,,,,,Europe/London,0
MOO,MUROORD,Muir of Ord,0,57.51785,-4.46023,,,,,Europe/London,0
MOR,MTIMER,Mortimer,0,51.37208,-1.03551,,,,,Europe/London,0
MOS,MSSD,Moss Side,0,53.76498,-2.94293,,,,,Europe/London,0
MOT,MOTSPRP,Motspur Park,1,51.3952,-0.23953,,,,,Europe/London,0
MOZ,CATZMOZ,MOLD BUS,0,0,0,,,,,Europe/London,0
MPK,MSSPARK,Mosspark,0,55.84083,-4.34829,,,,,Europe/London,0
MPL,MARPLE,Marple,0,53.40069,-2.05726,,,,,Europe/London,0
MPT,MRPTHRP,Morpeth,1,55.16238,-1.68307,,,,,Europe/London,0
MRB,MNORBER,Manorbier,0,51.66016,-4.79183,,,,,Europe/London,0
MRD,MOCHARD,Morchard Road,0,50.8319,-3.77637,,,,,Europe/London,0
MRF,MORFLDS,Moorfields,2,53.40856,-2.98919,,,,,Europe/London,0
MRN,MARDEN,Marden,0,51.17518,0.49317,,,,,Europe/London,0
MRP,MORTHRP,Moorthorpe,1,53.595,-1.30495,,,,,Europe/London,0
MRR,MORAR,Morar,0,56.96972,-5.82192,,,,,Europe/London,0
MRS,MNKRISB,Monks Risborough,0,51.73576,-0.82933,,,,,Europe/London,0
MRT,MOTO,Moreton (Merseyside),0,53.40721,-3.1135,,,,,Europe/London,0
MRW,MWRWSTN,MERIDIAN WATER,0,0,0,,,,,Europe/London,0
MRY,MPRT,Maryport,1,54.71132,-3.49407,,,,,Europe/London,0
MSD,MRSD,Moorside,0,53.51627,-2.3518,,,,,Europe/London,0
MSH,MSLH,Mossley Hill,0,53.37904,-2.91544,,,,,Europe/London,0
MSK,MRSK,Marske,0,54.58742,-1.01891,,,,,Europe/London,0
MSL,MOSSLEY,Mossley (Manchester),0,53.51498,-2.04128,,,,,Europe/London,0
MSM,MNCRMSM,MONSALL MTLK,1,0,0,,,,,Europe/London,0
MSN,MRSN,Marsden,0,53.60319,-1.93075,,,,,Europe/London,0
MSO,MSTN,Moston,0,53.52342,-2.17102,,,,,Europe/London,0
MSR,MINSTER,Minster,1,51.32917,1.31722,,,,,Europe/London,0
MSS,MSGT,Moses Gate,0,53.55598,-2.40119,,,,,Europe/London,0
MST,MAESTGW,Maesteg,0,51.60994,-3.65465,,,,,Europe/London,0
MSW,MFLDWSE,Mansfield Woodhouse,1,53.16356,-1.20185,,,,,Europe/London,0
MTA,MASH,Mountain Ash,0,51.68133,-3.37634,,,,,Europe/London,0
MTB,MATLCKB,Matlock Bath,0,53.12235,-1.55676,,,,,Europe/London,0
MTC,ESTFLDS,Mitcham Eastfields,0,51.40774,-0.15465,,,,,Europe/London,0
MTE,NNTNMIR,MIRA TECH PARK,0,0,0,,,,,Europe/London,0
MTG,MOTNGHM,Mottingham,0,51.44022,0.05005,,,,,Europe/London,0
MTH,MOTHRWL,Motherwell,2,55.79167,-3.99433,,,,,Europe/London,0
MTL,MRTLKE,Mortlake,0,51.46809,-0.26711,,,,,Europe/London,0
MTM,MMIL,Martin Mill,0,51.17068,1.34822,,,,,Europe/London,0
MTN,MORETON,Moreton (Dorset),0,50.70103,-2.31345,,,,,Europe/London,0
MTO,MARTON,Marton,0,54.54434,-1.19848,,,,,Europe/London,0
MTP,MONPELR,Montpelier,0,51.46835,-2.58869,,,,,Europe/London,0
MTS,MONTRSE,Montrose,1,56.7128,-2.47207,,,,,Europe/London,0
MTV,MNTVRNN,Mount Vernon,0,55.8402,-4.13367,,,,,Europe/London,0
MUB,MSELBGH,Musselburgh,1,55.93359,-3.0732,,,,,Europe/London,0
MUF,MNCRUFG,MANCHESTER UNITED FOOTBALL,0,0,0,,,,,Europe/London,0
MUI,MUIREND,Muirend,0,55.80946,-4.27439,,,,,Europe/London,0
MUL,CATZMUL,MULLINGAR   (CIE,1,0,0,,,,,Europe/Dublin,0
MVL,MLVRNLK,Malvern Link,0,52.12547,-2.31951,,,,,Europe/London,0
MYB,MARYLBN,London Marylebone,3,51.52252,-0.16291,,,,,Europe/London,0
MYH,MRYHILL,Maryhill,0,55.89763,-4.30075,,,,,Europe/London,0
MYL,MRYLAND,Maryland,0,51.54608,0.00582,,,,,Europe/London,0
MYT,MYTHLMR,Mytholmroyd,0,53.729,-1.98143,,,,,Europe/London,0
MZH,MAZEH,Maze Hill,0,51.48262,0.00291,,,,,Europe/London,0
NAN,NANTWCH,Nantwich,0,53.06357,-2.51896,,,,,Europe/London,0
NAR,NRBERTH,Narberth,0,51.79937,-4.72718,,,,,Europe/London,0
NAY,NWTA,Newton Aycliffe,0,54.6137,-1.58965,,,,,Europe/London,0
NBA,NBARNET,New Barnet,1,51.64857,-0.173,,,,,Europe/London,0
NBC,NBCKNHM,New Beckenham,1,51.41677,-0.03527,,,,,Europe/London,0
NBE,NBRWGE,Newbridge,1,51.66582,-3.14289,,,,,Europe/London,0
NBG,CATZNBG,NEWBRIDGE (CIE,0,0,0,,,,,Europe/Dublin,0
NBM,MNCRNBM,NEWBOLD MTLK,0,0,0,,,,,Europe/London,0
NBN,NBTN,New Brighton,0,53.4374,-3.04796,,,,,Europe/London,0
NBR,NARBRO,Narborough,0,52.57129,-1.20335,,,,,Europe/London,0
NBT,NRBITON,Norbiton,0,51.41236,-0.28402,,,,,Europe/London,0
NBW,NBERWCK,North Berwick,0,56.05704,-2.73074,,,,,Europe/London,0
NBY,NEWBURY,Newbury,1,51.39765,-1.32286,,,,,Europe/London,0
NCE,NEWCLEE,New Clee,0,53.57438,-0.06081,,,,,Europe/London,0
NCK,NWCMNCK,New Cumnock,0,55.40205,-4.18261,,,,,Europe/London,0
NCL,NWCSTLE,Newcastle,3,54.9684,-1.61728,,,,,Europe/London,0
NCM,NTHCAMP,North Camp,2,51.27579,-0.7312,,,,,Europe/London,0
NCO,NWCOURT,Newcourt,0,50.70504,-3.47278,,,,,Europe/London,0
NCT,NWRKCAS,Newark Castle,2,53.08,-0.81316,,,,,Europe/London,0
NCZ,NWCSTLL,NEWCASTLE(METRO),3,0,0,,,,,Europe/London,0
NDL,NDULWCH,North Dulwich,0,51.45451,-0.08792,,,,,Europe/London,0
NEG,NWTGRNG,Newtongrange,0,55.867,-3.06937,,,,,Europe/London,0
NEH,NWELTHM,New Eltham,0,51.43806,0.07053,,,,,Europe/London,0
NEI,NEILSTN,Neilston,0,55.78304,-4.42695,,,,,Europe/London,0
NEL,NLSN,Nelson,0,53.83501,-2.21376,,,,,Europe/London,0
NEM,NEWMLDN,New Malden,2,51.40407,-0.25594,,,,,Europe/London,0
NEN,CATZNEN,NENAGH      (CIE,0,0,0,,,,,Europe/Dublin,0
NES,NESTON,Neston,0,53.29185,-3.06308,,,,,Europe/London,0
NET,NTHRFLD,Netherfield,1,52.96141,-1.07985,,,,,Europe/London,0
NEW,NCRAGHA,Newcraighall,1,55.93312,-3.09084,,,,,Europe/London,0
NFA,FAMBDGE,North Fambridge,0,51.64858,0.68166,,,,,Europe/London,0
NFD,NRTF,Northfield,0,52.40819,-1.96585,,,,,Europe/London,0
NFL,NRTHCA,Northfleet,9,51.44585,0.32433,,,,,Europe/London,0
NFN,NAFERTN,Nafferton,0,54.01122,-0.38608,,,,,Europe/London,0
NGT,NEWNGTN,Newington,0,51.35334,0.66857,,,,,Europe/London,0
NHD,NUNHEAD,Nunhead,2,51.46683,-0.05227,,,,,Europe/London,0
NHE,NWHYTHE,New Hythe,0,51.313,0.45493,,,,,Europe/London,0
NHL,NHOL,New Holland,0,53.70192,-0.36021,,,,,Europe/London,0
NHY,NHEY,NEWHEY MTLK,0,0,0,,,,,Europe/London,0
NIM,MNCRNIM,NEW ISLNGTN MTLK,0,0,0,,,,,Europe/London,0
NIT,NITSH,Nitshill,0,55.81194,-4.35996,,,,,Europe/London,0
NLN,NEWLANE,New Lane,0,53.61166,-2.86772,,,,,Europe/London,0
NLR,NLANRST,North Llanrwst,0,53.14382,-3.80273,,,,,Europe/London,0
NLS,NAILSEA,Nailsea & Backwell,0,51.41941,-2.75063,,,,,Europe/London,0
NLT,NTHOLTP,Northolt Park,0,51.55754,-0.35947,,,,,Europe/London,0
NLW,NWTNLW,Newton-le-Willows,2,53.45306,-2.6136,,,,,Europe/London,0
NMC,NWMILSC,New Mills Central,1,53.36484,-2.00567,,,,,Europe/London,0
NMK,NWMKET,Newmarket,1,52.23794,0.40621,,,,,Europe/London,0
NMM,MNCRNMM,NEWTNH&MOSTNMTKL,1,0,0,,,,,Europe/London,0
NMN,NWMILSN,New Mills Newtown,1,53.35963,-2.00853,,,,,Europe/London,0
NMP,NMPTBAY,Northampton,9,52.2375,-0.90665,,,,,Europe/London,0
NMR,NMRMTLK,NORTHERN MR MTLK,0,0,0,,,,,Europe/London,0
NMT,NEEDHAM,Needham Market,0,52.15259,1.05526,,,,,Europe/London,0
NNG,NEWANG,Newark North Gate,2,53.08176,-0.79985,,,,,Europe/London,0
NNN,NNTNBUS,NUNEATON BUS STN,1,0,0,,,,,Europe/London,0
NNP,NINIANP,Ninian Park,0,51.47662,-3.20169,,,,,Europe/London,0
NNT,NUNTHRP,Nunthorpe,0,54.52788,-1.16945,,,,,Europe/London,0
NOA,NWTOA,Newton-on-Ayr,0,55.47405,-4.62583,,,,,Europe/London,0
NOR,NORMNTN,Normanton,0,53.70052,-1.4234,,,,,Europe/London,0
NOT,NTNG,Nottingham,2,52.94707,-1.14638,,,,,Europe/London,0
NPD,NPUD,New Pudsey,0,53.80448,-1.68079,,,,,Europe/London,0
NQU,NQNSFRY,North Queensferry,0,56.0125,-3.39458,,,,,Europe/London,0
NQY,NEWQUAY,Newquay,0,50.4151,-5.07565,,,,,Europe/London,0
NRB,NORBURY,Norbury,0,51.41145,-0.12193,,,,,Europe/London,0
NRC,NEWBRYR,Newbury Racecourse,0,51.39846,-1.3078,,,,,Europe/London,0
NRD,NTRD,North Road,0,54.5362,-1.55395,,,,,Europe/London,0
NRN,NAIRN,Nairn,0,57.58025,-3.872,,,,,Europe/London,0
NRT,NETHRTN,Nethertown,0,54.45642,-3.56584,,,,,Europe/London,0
NRW,NRCH,Norwich,2,52.62715,1.30682,,,,,Europe/London,0
NSB,NRMNSBY,Normans Bay,0,50.8261,0.38946,,,,,Europe/London,0
NSD,NWSTEAD,Newstead,0,53.06998,-1.22179,,,,,Europe/London,0
NSG,NEWSGAT,New Southgate,1,51.61411,-0.14304,,,,,Europe/London,0
NSH,NSHEEN,North Sheen,0,51.46515,-0.28788,,,,,Europe/London,0
NTA,NABT,Newton Abbot,2,50.52959,-3.59917,,,,,Europe/London,0
NTC,NSTCYRE,Newton St Cyres,0,50.77893,-3.58939,,,,,Europe/London,0
NTH,NEATH,Neath,1,51.66236,-3.80722,,,,,Europe/London,0
NTL,NETLEY,Netley,0,50.87491,-1.3419,,,,,Europe/London,0
NTN,NWTL,Newton (S Lanarks),1,55.81878,-4.13305,,,,,Europe/London,0
NTR,NLRTN,Northallerton,2,54.33307,-1.44127,,,,,Europe/London,0
NUF,NUTFILD,Nutfield,0,51.22681,-0.13253,,,,,Europe/London,0
NUM,NMBRLPK,Northumberland Park,0,51.60197,-0.05393,,,,,Europe/London,0
NUN,NNTN,Nuneaton,2,52.52637,-1.46388,,,,,Europe/London,0
NUT,NUTBBUS,Nutbourne,9,50.84607,-0.88295,,,,,Europe/London,0
NVH,NEWHVNH,Newhaven Harbour,0,50.78979,0.05499,,,,,Europe/London,0
NVN,NEWHVNT,Newhaven Town,0,50.79486,0.05495,,,,,Europe/London,0
NVR,NAVGTNR,Navigation Road,1,53.39538,-2.34342,,,,,Europe/London,0
NWA,NWALSHM,North Walsham,0,52.81689,1.38445,,,,,Europe/London,0
NWB,NWEMBLY,North Wembley,0,51.5626,-0.30398,,,,,Europe/London,0
NWD,NORWDJ,Norwood Junction,2,51.39702,-0.07522,,,,,Europe/London,0
NWE,NEWPRTE,Newport (Essex),0,51.97987,0.21514,,,,,Europe/London,0
NWI,NTHWICH,Northwich,0,53.26145,-2.49692,,,,,Europe/London,0
NWM,NMILTON,New Milton,1,50.75575,-1.65781,,,,,Europe/London,0
NWN,NWTH,Newton for Hyde,1,53.45638,-2.06714,,,,,Europe/London,0
NWP,MAINDEJ,Newport (S Wales),9,51.58879,-3.00054,,,,,Europe/London,0
NWR,NWTM,Newtonmore,0,57.05915,-4.11911,,,,,Europe/London,0
NWT,NWTP,Newtown (Powys),0,52.51231,-3.31139,,,,,Europe/London,0
NWX,NWCRELL,New Cross,9,51.47634,-0.03243,,,,,Europe/London,0
NWY,CATZNWY,NEWRY NI,0,0,0,,,,,Europe/London,0
NXG,NEWXGEL,New Cross Gate,9,51.47513,-0.0404,,,,,Europe/London,0
OBN,OBAN,Oban,1,56.41249,-5.47393,,,,,Europe/London,0
OCK,OCKENDN,Ockendon,0,51.52199,0.29047,,,,,Europe/London,0
OCM,MNCROCM,OLDHAM CTRL MTLK,0,0,0,,,,,Europe/London,0
OHL,OLHL,Old Hill,0,52.47093,-2.05619,,,,,Europe/London,0
OKE,OKHMPTN,Okehampton,0,50.73238,-3.99621,,,,,Europe/London,0
OKL,OKLGHPK,Oakleigh Park,0,51.63768,-0.16621,,,,,Europe/London,0
OKM,OAKHAM,Oakham,1,52.67221,-0.73417,,,,,Europe/London,0
OKN,OAKNGTS,Oakengates,0,52.6934,-2.45019,,,,,Europe/London,0
OKS,MNCROSM,OLDHAM K ST MTLK,0,0,0,,,,,Europe/London,0
OLD,OLDST,Old Street,0,51.52583,-0.08854,,,,,Europe/London,0
OLF,OLDFLBR,Oldfield Park,9,51.37923,-2.38051,,,,,Europe/London,0
OLM,OLDHAMM,OLDHAM MPS MTLK,0,0,0,,,,,Europe/London,0
OLT,OLTON,Olton,0,52.43851,-1.80431,,,,,Europe/London,0
OLY,OCKLYAC,Ockley,0,51.15151,-0.33601,,,,,Europe/London,0
OMS,ORMSKRK,Ormskirk,2,53.56927,-2.88119,,,,,Europe/London,0
OPK,ORELPKH,Orrell Park,0,53.4619,-2.96332,,,,,Europe/London,0
ORE,OREE,Ore,0,50.86695,0.59157,,,,,Europe/London,0
ORN,OLDROAN,Old Roan,0,53.4869,-2.95107,,,,,Europe/London,0
ORP,ORPNGTN,Orpington,2,51.3733,0.08909,,,,,Europe/London,0
ORR,ORRELL,Orrell,0,53.53031,-2.70884,,,,,Europe/London,0
OTF,OTFORD,Otford,2,51.31316,0.19678,,,,,Europe/London,0
OTR,OLDTRFD,OLD TRAFFRD MTLK,0,0,0,,,,,Europe/London,0
OUD,PBROUND,OUNDLE PB BUS,0,0,0,,,,,Europe/London,0
OUN,OULTNBN,Oulton Broad North,0,52.47776,1.71571,,,,,Europe/London,0
OUS,OULTNBS,Oulton Broad South,0,52.4696,1.70766,,,,,Europe/London,0
OUT,OUTWOOD,Outwood,0,53.71529,-1.5104,,,,,Europe/London,0
OVE,OPOL,Overpool,0,53.28405,-2.92406,,,,,Europe/London,0
OVR,OVTN,Overton,0,51.25429,-1.25927,,,,,Europe/London,0
OXF,OXFD,Oxford,2,51.7535,-1.27015,,,,,Europe/London,0
OXN,OXENHLM,Oxenholme Lake District,1,54.30493,-2.72187,,,,,Europe/London,0
OXP,OXFPWAY,Oxford Parkway,1,51.80407,-1.27449,,,,,Europe/London,0
OXS,OXSHOTT,Oxshott,0,51.3364,-0.36242,,,,,Europe/London,0
OXT,OXTED,Oxted,1,51.25791,-0.00483,,,,,Europe/London,0
PAD,PADTON,London Paddington,3,51.516,-0.17617,,,,,Europe/London,0
PAL,PALMRSG,Palmers Green,0,51.61831,-0.11044,,,,,Europe/London,0
PAN,PANGBRN,Pangbourne,0,51.4854,-1.09047,,,,,Europe/London,0
PAR,PARR,Par,1,50.35533,-4.70468,,,,,Europe/London,0
PAT,PTRCRFT,Patricroft,0,53.48478,-2.35824,,,,,Europe/London,0
PBL,PARBOLD,Parbold,0,53.59075,-2.77075,,,,,Europe/London,0
PBO,PBRO,Peterborough,2,52.57498,-0.24984,,,,,Europe/London,0
PBR,POTRSBR,Potters Bar,1,51.69707,-0.19261,,,,,Europe/London,0
PBU,PBROBST,PETERBRO BUS STN,1,0,0,,,,,Europe/London,0
PBY,PMBRYBP,Pembrey & Burry Port,0,51.68353,-4.24784,,,,,Europe/London,0
PCD,PENCOED,Pencoed,0,51.52461,-3.50048,,,,,Europe/London,0
PCN,PSLYCAN,Paisley Canal,0,55.84008,-4.42412,,,,,Europe/London,0
PDG,PADGATE,Padgate,0,53.40579,-2.55681,,,,,Europe/London,0
PDT,PDSTWBT,PADSTOW BUS,0,0,0,,,,,Europe/London,0
PDW,PKWD,Paddock Wood,2,51.18227,0.38915,,,,,Europe/London,0
PEA,PEARTRE,Peartree,0,52.897,-1.47321,,,,,Europe/London,0
PEB,PVNSYBY,Pevensey Bay,0,50.81746,0.34291,,,,,Europe/London,0
PEE,CATZPEE,PORTREE BUS,1,0,0,,,,,Europe/London,0
PEG,PEGSWD,Pegswood,0,55.17813,-1.64417,,,,,Europe/London,0
PEM,PBRT,Pemberton,0,53.53041,-2.67035,,,,,Europe/London,0
PEN,PENARTH,Penarth,0,51.43589,-3.17444,,,,,Europe/London,0
PER,PNRHCBR,Penrhiwceiber,0,51.66992,-3.35994,,,,,Europe/London,0
PES,PSRN,Pensarn (Gwynedd),0,52.83071,-4.11216,,,,,Europe/London,0
PET,PETSWD,Petts Wood,2,51.38862,0.07448,,,,,Europe/London,0
PEV,PVNSYAW,Pevensey & Westham,0,50.8158,0.32481,,,,,Europe/London,0
PEW,PEWSEY,Pewsey,0,51.34219,-1.77068,,,,,Europe/London,0
PFL,PURFLET,Purfleet,0,51.48101,0.23677,,,,,Europe/London,0
PFM,PTFTMHL,Pontefract Monkhill,1,53.69898,-1.30369,,,,,Europe/London,0
PFR,PTFTBHL,Pontefract Baghill,0,53.69188,-1.30335,,,,,Europe/London,0
PFY,PLTNLFY,Poulton-le-Fylde,0,53.84843,-2.99062,,,,,Europe/London,0
PGM,PENGAM,Pengam,0,51.67046,-3.2301,,,,,Europe/London,0
PGN,PAIGDV,Paignton,9,50.43472,-3.56488,,,,,Europe/London,0
PHG,PENHELG,Penhelig,0,52.54569,-4.03503,,,,,Europe/London,0
PHM,PLHMTLK,PEEL HALL MTLK,0,0,0,,,,,Europe/London,0
PHR,PNSHBUS,Penshurst,9,51.19734,0.17347,,,,,Europe/London,0
PIL,PILNING,Pilning,0,51.55663,-2.62711,,,,,Europe/London,0
PIN,PINHOE,Pinhoe,0,50.73778,-3.46933,,,,,Europe/London,0
PIT,PTLCHRY,Pitlochry,0,56.7025,-3.73557,,,,,Europe/London,0
PIZ,YORKPCK,PICKERING BUS,0,0,0,,,,,Europe/London,0
PKG,PNKRBUS,Penkridge,9,52.7235,-2.11929,,,,,Europe/London,0
PKS,PSTONE,Parkstone (Dorset),0,50.72298,-1.94796,,,,,Europe/London,0
PKT,PKST,Park Street,0,51.72546,-0.34028,,,,,Europe/London,0
PLC,PLUCKLY,Pluckley,0,51.15647,0.7474,,,,,Europe/London,0
PLD,PSLDAWH,Portslade,0,50.83568,-0.20534,,,,,Europe/London,0
PLE,PLKLHDE,Pollokshields East,0,55.84107,-4.2686,,,,,Europe/London,0
PLG,POLGATE,Polegate,2,50.82125,0.24514,,,,,Europe/London,0
PLK,PLOCKTN,Plockton,0,57.33356,-5.666,,,,,Europe/London,0
PLM,PLUMLEY,Plumley,0,53.27467,-2.41966,,,,,Europe/London,0
PLN,PLTH,Portlethen,0,57.06138,-2.12661,,,,,Europe/London,0
PLS,PLSNGTN,Pleasington,0,53.73096,-2.54412,,,,,Europe/London,0
PLT,PNTLTYN,Pontlottyn,0,51.74663,-3.27896,,,,,Europe/London,0
PLU,PLMS,Plumstead,1,51.4898,0.08426,,,,,Europe/London,0
PLW,PLKLHDW,Pollokshields West,0,55.8377,-4.27575,,,,,Europe/London,0
PLY,PLYMTH,Plymouth,2,50.37783,-4.14332,,,,,Europe/London,0
PMA,PRTSMTA,Portsmouth Arms,0,50.957,-3.95058,,,,,Europe/London,0
PMB,PEMBROK,Pembroke,0,51.67295,-4.90602,,,,,Europe/London,0
PMD,PEMBRKD,Pembroke Dock,1,51.69391,-4.93805,,,,,Europe/London,0
PMH,PHBR,Portsmouth Harbour,2,50.79696,-1.10784,,,,,Europe/London,0
PMO,MNCRPOM,POMONA MTLK,1,0,0,,,,,Europe/London,0
PMP,PLMPTON,Plumpton,1,50.92866,-0.06018,,,,,Europe/London,0
PMR,PCKHMRY,Peckham Rye,2,51.47003,-0.06941,,,,,Europe/London,0
PMS,PSEA,Portsmouth & Southsea,2,50.7985,-1.09091,,,,,Europe/London,0
PMT,POLMONT,Polmont,1,55.98474,-3.71497,,,,,Europe/London,0
PMW,PNMNMWR,Penmaenmawr,0,53.27047,-3.92351,,,,,Europe/London,0
PNA,PNALLY,Penally,0,51.65892,-4.72206,,,,,Europe/London,0
PNC,PENYCHN,Penychain,0,52.90288,-4.33872,,,,,Europe/London,0
PNE,PNGEE,Penge East,1,51.41933,-0.05422,,,,,Europe/London,0
PNF,PNYF,Penyffordd,0,53.14309,-3.05484,,,,,Europe/London,0
PNL,PANNAL,Pannal,0,53.95832,-1.53347,,,,,Europe/London,0
PNM,PENMERE,Penmere,0,50.15033,-5.08319,,,,,Europe/London,0
PNQ,PNZQUAY,PENZANCE QUAY,1,0,0,,,,,Europe/London,0
PNR,PNTH,Penrith North Lakes,1,54.66181,-2.75888,,,,,Europe/London,0
PNS,PENISTN,Penistone,0,53.52555,-1.62278,,,,,Europe/London,0
PNW,PENEW,Penge West,1,51.41756,-0.06084,,,,,Europe/London,0
PNY,PYBONT,Pen-y-Bont,0,52.27394,-3.32193,,,,,Europe/London,0
PNZ,PENZNCE,Penzance,1,50.12167,-5.53257,,,,,Europe/London,0
POK,POKSDWN,Pokesdown,0,50.73109,-1.8251,,,,,Europe/London,0
POL,POLSBDG,Polsloe Bridge,0,50.73128,-3.50195,,,,,Europe/London,0
PON,PNDRSEN,Ponders End,0,51.64226,-0.03508,,,,,Europe/London,0
POO,POOLE,Poole,1,50.71943,-1.98332,,,,,Europe/London,0
POP,POPLTON,Poppleton,0,53.9759,-1.1486,,,,,Europe/London,0
POR,PORH,Porth,0,51.61254,-3.40719,,,,,Europe/London,0
POT,PTFTTSF,Pontefract Tanshelf,0,53.69413,-1.31891,,,,,Europe/London,0
PPD,PTYPRID,Pontypridd,1,51.59937,-3.34137,,,,,Europe/London,0
PPK,POSILPK,Possilpark & Parkhouse,0,55.89014,-4.25851,,,,,Europe/London,0
PPL,PONTYPL,Pontypool & New Inn,0,51.69796,-3.01424,,,,,Europe/London,0
PPR,PRSPBUS,Preston Park - London Road,1,50.84585,-0.15155,,,,,Europe/London,0
PRA,PWCKAPT,Prestwick Intl Airport,0,55.50904,-4.61417,,,,,Europe/London,0
PRB,PSBY,Prestbury,0,53.29338,-2.14548,,,,,Europe/London,0
PRE,PRST,Preston,3,53.75686,-2.70813,,,,,Europe/London,0
PRH,PRHN,Penrhyndeudraeth,0,52.92883,-4.06456,,,,,Europe/London,0
PRL,PRITLWL,Prittlewell,0,51.55069,0.71068,,,,,Europe/London,0
PRN,PARTON,Parton,0,54.57037,-3.5808,,,,,Europe/London,0
PRO,CATZPRO,PORTARLNGTN (CIE,1,0,0,,,,,Europe/Dublin,0
PRP,PRSP,Preston Park,0,50.84594,-0.15517,,,,,Europe/London,0
PRR,PRINRIS,Princes Risborough,2,51.71786,-0.84388,,,,,Europe/London,0
PRS,PREES,Prees,0,52.8993,-2.68966,,,,,Europe/London,0
PRT,PSTA,Prestatyn,0,53.3365,-3.40713,,,,,Europe/London,0
PRU,PRUDHOE,Prudhoe,0,54.96583,-1.86487,,,,,Europe/London,0
PRW,PERANWL,Perranwell,0,50.21658,-5.11207,,,,,Europe/London,0
PRY,PRYBR,Perry Barr,0,52.51649,-1.90196,,,,,Europe/London,0
PSC,PRESCOT,Prescot,0,53.42356,-2.79917,,,,,Europe/London,0
PSE,PITSEA,Pitsea,1,51.56036,0.50629,,,,,Europe/London,0
PSH,PERSHOR,Pershore,0,52.13055,-2.07154,,,,,Europe/London,0
PSL,PSLT,Port Sunlight,0,53.34925,-2.99803,,,,,Europe/London,0
PSN,PARSNST,Parson Street,0,51.43332,-2.60774,,,,,Europe/London,0
PST,PPAN,Prestonpans,0,55.9531,-2.97477,,,,,Europe/London,0
PSW,PWTH,Polesworth,0,52.62583,-1.61054,,,,,Europe/London,0
PTA,PTALBOT,Port Talbot Parkway,1,51.59172,-3.78131,,,,,Europe/London,0
PTB,PNTRBCH,Pentre-Bach,0,51.72501,-3.36232,,,,,Europe/London,0
PTC,PCHESTR,Portchester,0,50.84875,-1.12424,,,,,Europe/London,0
PTD,PNTADLS,Pontarddulais,0,51.71762,-4.04554,,,,,Europe/London,0
PTF,PNTYFYN,Pantyffynnon,1,51.77888,-3.99743,,,,,Europe/London,0
PTG,PTGLSGW,Port Glasgow,1,55.93351,-4.68983,,,,,Europe/London,0
PTH,PERTH,Perth,2,56.39209,-3.4397,,,,,Europe/London,0
PTK,PTCK,Partick,1,55.86989,-4.30881,,,,,Europe/London,0
PTL,PHLD,Priesthill & Darnley,0,55.81217,-4.34289,,,,,Europe/London,0
PTM,PRTHMDG,Porthmadog,0,52.93092,-4.13445,,,,,Europe/London,0
PTN,PTADOWN,PORTADOWN NI,1,0,0,,,,,Europe/London,0
PTO,CATZPTO,PORTLAOISE  (CIE,0,0,0,,,,,Europe/Dublin,0
PTR,PTRSFLD,Petersfield,2,51.00673,-0.94114,,,,,Europe/London,0
PTS,PRSH,PORTRUSH NI,0,0,0,,,,,Europe/London,0
PTT,PATERTN,Patterton,0,55.79061,-4.3353,,,,,Europe/London,0
PTW,PWCK,Prestwick,0,55.5017,-4.61516,,,,,Europe/London,0
PUL,PULBRO,Pulborough,0,50.95736,-0.51656,,,,,Europe/London,0
PUO,PURLEYO,Purley Oaks,0,51.34705,-0.09886,,,,,Europe/London,0
PUR,PURLEY,Purley,2,51.33758,-0.11404,,,,,Europe/London,0
PUT,PUTNEY,Putney,2,51.4613,-0.21647,,,,,Europe/London,0
PWC,PWCH,PRESTWICH MTLK,1,0,0,,,,,Europe/London,0
PWE,PLKSHWE,Pollokshaws East,0,55.82464,-4.28689,,,,,Europe/London,0
PWL,PWLHELI,Pwllheli,0,52.88783,-4.4167,,,,,Europe/London,0
PWW,BUSBYJ,Pollokshaws West,9,55.82383,-4.30161,,,,,Europe/London,0
PWY,PATCHWY,Patchway,1,51.52593,-2.56269,,,,,Europe/London,0
PYC,PONYCLN,Pontyclun,0,51.52377,-3.39292,,,,,Europe/London,0
PYE,PYECRNR,Pye Corner,1,51.58148,-3.04121,,,,,Europe/London,0
PYG,PSLYGST,Paisley Gilmour Street,1,55.84735,-4.42451,,,,,Europe/London,0
PYJ,PSLYSTJ,Paisley St James,0,55.85212,-4.44244,,,,,Europe/London,0
PYL,PYLE,Pyle,0,51.52574,-3.69805,,,,,Europe/London,0
PYN,PRYN,Penryn,0,50.17071,-5.11161,,,,,Europe/London,0
PYP,PNYPANT,Pont-y-Pant,0,53.06513,-3.86272,,,,,Europe/London,0
PYT,POYNTON,Poynton,0,53.35038,-2.13441,,,,,Europe/London,0
QBR,QUENBRO,Queenborough,0,51.41564,0.74967,,,,,Europe/London,0
QCF,CATZQCF,COUNTRYFILE LIVE,0,0,0,,,,,Europe/London,0
QDF,LYDNQDF,DEAN FOREST RAILWAY,1,0,0,,,,,Europe/London,0
QDK,CATZQDK,DEREHAM KONECTBUS,0,0,0,,,,,Europe/London,0
QDM,CATZQDM,DEREHAM (COACH),1,0,0,,,,,Europe/London,0
QED,CATZQED,EMR DESTINATION,0,0,0,,,,,Europe/London,0
QEO,CATZQEO,EMR ORIGIN,0,0,0,,,,,Europe/London,0
QGL,CATZQGL,GOLFLINK 2015,0,0,0,,,,,Europe/London,0
QGS,CATZQGS,GLASGOW SUBWAY,0,0,0,,,,,Europe/London,0
QHC,CATZQHC,HAMPTN CT FLOWER,0,0,0,,,,,Europe/London,0
QPK,QUNPARK,Queens Park (Glasgow),0,55.8353,-4.26675,,,,,Europe/London,0
QPW,QPRK,Queens Park (London),2,51.53397,-0.20498,,,,,Europe/London,0
QRB,QTRDBAT,Queenstown Road (Battersea),2,51.47497,-0.14668,,,,,Europe/London,0
QRP,PCKHMQD,Queens Road Peckham,0,51.47357,-0.05731,,,,,Europe/London,0
QUI,QNTRLDW,Quintrell Downs,0,50.40405,-5.02849,,,,,Europe/London,0
QXD,CATZQXD,XC DESTINATION,0,0,0,,,,,Europe/London,0
QXO,CATZQXO,XC ORIGIN,0,0,0,,,,,Europe/London,0
QYD,QUAKRSY,Quakers Yard,0,51.66073,-3.3228,,,,,Europe/London,0
RAD,RDLEY,Radley,0,51.68621,-1.24048,,,,,Europe/London,0
RAI,RAINHMK,Rainham (Kent),1,51.36631,0.61134,,,,,Europe/London,0
RAM,RAMSGTE,Ramsgate,1,51.3408,1.40647,,,,,Europe/London,0
RAN,RANNOCH,Rannoch,0,56.68605,-4.57687,,,,,Europe/London,0
RAU,RAUCEBY,Rauceby,0,52.9852,-0.45661,,,,,Europe/London,0
RAV,RGLS,Ravenglass,0,54.35571,-3.40881,,,,,Europe/London,0
RAY,RAYNSPK,Raynes Park,2,51.40917,-0.23015,,,,,Europe/London,0
RBR,RBRTSBD,Robertsbridge,2,50.98493,0.46878,,,,,Europe/London,0
RBU,RDNGBUS,Reading - buses,1,51.45815,-0.97166,,,,,Europe/London,0
RCA,RISCA,Risca & Pontymister,0,51.60585,-3.09221,,,,,Europe/London,0
RCC,REDCARC,Redcar Central,1,54.61623,-1.07087,,,,,Europe/London,0
RCD,RCHDALE,Rochdale,2,53.61031,-2.15352,,,,,Europe/London,0
RCE,REDCARE,Redcar East,0,54.60925,-1.05229,,,,,Europe/London,0
RCF,RADGM,RADCLIFFE MTLK,1,0,0,,,,,Europe/London,0
RCM,CATZRCM,ROSCOMMON   (CIE,0,0,0,,,,,Europe/Dublin,0
RCR,CATZRCR,ROSCREA     (CIE,0,0,0,,,,,Europe/Dublin,0
RDA,REDLAND,Redland,0,51.46839,-2.59912,,,,,Europe/London,0
RDB,REDBDGE,Redbridge (Hants),0,50.91994,-1.47016,,,,,Europe/London,0
RDC,RDIT,Redditch,0,52.30628,-1.94554,,,,,Europe/London,0
RDD,RDLSDWN,Riddlesdown,0,51.33249,-0.09939,,,,,Europe/London,0
RDF,RADNOT,Radcliffe (Notts),0,52.94879,-1.03733,,,,,Europe/London,0
RDG,RDNGORJ,Reading,9,51.45879,-0.97185,,,,,Europe/London,0
RDH,REDHILL,Redhill,2,51.2402,-0.1659,,,,,Europe/London,0
RDM,RIDNGML,Riding Mill,0,54.94874,-1.97155,,,,,Europe/London,0
RDN,REDISHN,Reddish North,0,53.44941,-2.15625,,,,,Europe/London,0
RDR,RADYR,Radyr,1,51.51632,-3.24835,,,,,Europe/London,0
RDS,REDISHS,Reddish South,0,53.43593,-2.15876,,,,,Europe/London,0
RDT,RADLETT,Radlett,0,51.68519,-0.31724,,,,,Europe/London,0
RDU,CATZRDU,RATHDRUM    (CIE,0,0,0,,,,,Europe/Dublin,0
RDW,REDGWST,Reading West,2,51.4555,-0.99013,,,,,Europe/London,0
REC,RCTRYRD,Rectory Road,0,51.5585,-0.06827,,,,,Europe/London,0
RED,REDRUTH,Redruth,1,50.23325,-5.22592,,,,,Europe/London,0
REE,RDHAMN,Reedham (Norfolk),1,52.5645,1.55965,,,,,Europe/London,0
REI,REIGATE,Reigate,2,51.24196,-0.20383,,,,,Europe/London,0
RET,RTFD,Retford,2,53.31515,-0.94788,,,,,Europe/London,0
RFD,ROCHFD,Rochford,0,51.58173,0.7023,,,,,Europe/London,0
RFY,ROCKFRY,Rock Ferry,2,53.37265,-3.01083,,,,,Europe/London,0
RGL,COLWICH,Rugeley Trent Valley,9,52.76966,-1.92985,,,,,Europe/London,0
RGP,REDGGPK,READING GREEN PARK,0,0,0,,,,,Europe/London,0
RGT,RUGLTWN,Rugeley Town,0,52.75438,-1.93684,,,,,Europe/London,0
RGW,RMSWILP,Ramsgreave & Wilpshire,0,53.77978,-2.47814,,,,,Europe/London,0
RHA,DONCRHA,DONCASTER AIRPORT BUS,0,0,0,,,,,Europe/London,0
RHB,ROBINHB,ROBIN HOOD'S BAY BUS,0,0,0,,,,,Europe/London,0
RHD,RIBLHED,Ribblehead,0,54.20584,-2.36086,,,,,Europe/London,0
RHI,RHIWBNA,Rhiwbina,0,51.52118,-3.21397,,,,,Europe/London,0
RHL,RHYL,Rhyl,1,53.31842,-3.48911,,,,,Europe/London,0
RHM,REEDHMS,Reedham (Surrey),0,51.33112,-0.12342,,,,,Europe/London,0
RHO,RHOSNGR,Rhosneigr,0,53.23484,-4.50664,,,,,Europe/London,0
RHY,RHYMNEY,Rhymney,1,51.75884,-3.2893,,,,,Europe/London,0
RIA,RHOOSE,Rhoose,1,51.38707,-3.34938,,,,,Europe/London,0
RIC,RCKMNSW,Rickmansworth,0,51.64025,-0.47328,,,,,Europe/London,0
RID,RIDGMNT,Ridgmont,1,52.0264,-0.59456,,,,,Europe/London,0
RIL,RICELA,Rice Lane,0,53.45777,-2.96232,,,,,Europe/London,0
RIS,RISHTON,Rishton,0,53.76381,-2.42016,,,,,Europe/London,0
RKT,RSKNGTN,Ruskington,0,53.04146,-0.38076,,,,,Europe/London,0
RLG,RAYLEGH,Rayleigh,0,51.58929,0.59998,,,,,Europe/London,0
RLN,RWLNDSC,Rowlands Castle,0,50.89217,-0.95747,,,,,Europe/London,0
RMB,ROMANBG,Roman Bridge,0,53.04442,-3.92165,,,,,Europe/London,0
RMC,ROTHCEN,Rotherham Central,1,53.43225,-1.36043,,,,,Europe/London,0
RMD,RICHMND,Richmond (London),2,51.46306,-0.30156,,,,,Europe/London,0
RMF,ROMFORD,Romford,2,51.57483,0.18324,,,,,Europe/London,0
RMK,DLTNRIM,RICHMOND YKS BUS,0,0,0,,,,,Europe/London,0
RML,ROMILEY,Romiley,1,53.41401,-2.08933,,,,,Europe/London,0
RMR,CATZRMR,RATHMORE    (CIE,0,0,0,,,,,Europe/Dublin,0
RNF,RNFD,Rainford,0,53.51711,-2.78947,,,,,Europe/London,0
RNH,RHIL,Rainhill,0,53.41712,-2.7664,,,,,Europe/London,0
RNM,RNHAME,Rainham (London),0,51.51672,0.19063,,,,,Europe/London,0
RNR,RGHTNRD,Roughton Road,0,52.91802,1.29979,,,,,Europe/London,0
ROB,ROBY,Roby,0,53.41004,-2.85593,,,,,Europe/London,0
ROC,RCHE,Roche,0,50.41854,-4.8302,,,,,Europe/London,0
ROE,RTHERHI,Rotherhithe,0,51.50082,-0.05205,,,,,Europe/London,0
ROG,ROGART,Rogart,0,57.98871,-4.15818,,,,,Europe/London,0
ROL,ROLSTN,Rolleston,0,53.06528,-0.89967,,,,,Europe/London,0
ROM,ROMSEY,Romsey,1,50.99253,-1.49314,,,,,Europe/London,0
ROO,ROOSE,Roose,0,54.11517,-3.19457,,,,,Europe/London,0
ROR,ROGRSTN,Rogerstone,1,51.59562,-3.06661,,,,,Europe/London,0
ROS,ROSYTH,Rosyth,0,56.04552,-3.42731,,,,,Europe/London,0
ROW,ROWLEYR,Rowley Regis,0,52.47733,-2.03087,,,,,Europe/London,0
RRB,RYDRBRW,Ryder Brow,0,53.45658,-2.17309,,,,,Europe/London,0
RRM,RWRMTLK,ROBINSWD RD MTLK,0,0,0,,,,,Europe/London,0
RRN,RBRYSTN,ROBROYSTON,0,0,0,,,,,Europe/London,0
RSB,ROSLARE,ROSSLARE EUROPORT (CIE,1,0,0,,,,,Europe/Dublin,0
RSG,ROSG,Rose Grove,1,53.78619,-2.2828,,,,,Europe/London,0
RSH,ROHL,Rose Hill Marple,0,53.39622,-2.07652,,,,,Europe/London,0
RSS,CATZRSS,ROSSLARE STRAND (CIE,0,0,0,,,,,Europe/Dublin,0
RTC,MNCRRCM,ROCHDALE TC MTLK,0,0,0,,,,,Europe/London,0
RTH,RDHMTLK,ROUNDTHORN MTLK,0,0,0,,,,,Europe/London,0
RTN,RENTON,Renton,0,55.97043,-4.58613,,,,,Europe/London,0
RTR,RCHT,Rochester,1,51.38965,0.50685,,,,,Europe/London,0
RTY,RSAY,ROTHESAY,0,0,0,,,,,Europe/London,0
RUA,RUABON,Ruabon,0,52.98713,-3.04314,,,,,Europe/London,0
RUE,RUNCRNE,Runcorn East,0,53.32757,-2.6657,,,,,Europe/London,0
RUF,RUFDORD,Rufford,0,53.63446,-2.80784,,,,,Europe/London,0
RUG,RUGBY,Rugby,2,52.37909,-1.25048,,,,,Europe/London,0
RUN,RUNCORN,Runcorn,2,53.33869,-2.73925,,,,,Europe/London,0
RUS,RUSWARP,Ruswarp,0,54.47019,-0.62777,,,,,Europe/London,0
RUT,RTHGLEN,Rutherglen,0,55.83059,-4.2121,,,,,Europe/London,0
RVB,RBRN,Ravensbourne,0,51.41419,-0.00756,,,,,Europe/London,0
RVN,RTHP,Ravensthorpe,0,53.67552,-1.65558,,,,,Europe/London,0
RWC,RAWCLIF,Rawcliffe,0,53.68904,-0.96086,,,,,Europe/London,0
RYB,ROYBDGE,Roy Bridge,0,56.88836,-4.83724,,,,,Europe/London,0
RYD,RYDE,Ryde Esplanade,1,50.73287,-1.15962,,,,,Europe/London,0
RYE,RYEE,Rye,0,50.95237,0.7307,,,,,Europe/London,0
RYH,RYEHOUS,Rye House,0,51.76941,0.00563,,,,,Europe/London,0
RYN,ROYDON,Roydon,0,51.77549,0.03625,,,,,Europe/London,0
RYP,RYDCATS,Ryde Pier Head,9,50.73919,-1.16013,,,,,Europe/London,0
RYR,RYDS,Ryde St Johns Road,0,50.72437,-1.15657,,,,,Europe/London,0
RYS,ROYSTON,Royston,1,52.05308,-0.02692,,,,,Europe/London,0
SAA,STALBNA,St Albans Abbey,2,51.74473,-0.34257,,,,,Europe/London,0
SAB,SMALBRK,Smallbrook Junction,0,50.7111,-1.1542,,,,,Europe/London,0
SAC,STALBCY,St Albans City,2,51.75047,-0.32754,,,,,Europe/London,0
SAD,SNDWDUD,Sandwell & Dudley,1,52.50866,-2.0116,,,,,Europe/London,0
SAE,SAIR,Saltaire,0,53.83849,-1.79048,,,,,Europe/London,0
SAF,SALFDS,Salfords (Surrey),0,51.20175,-0.16249,,,,,Europe/London,0
SAH,SALHOUS,Salhouse,0,52.67558,1.39142,,,,,Europe/London,0
SAJ,STJOHNS,St Johns (London),1,51.46939,-0.02272,,,,,Europe/London,0
SAL,SLSBRY,Salisbury,2,51.07055,-1.80639,,,,,Europe/London,0
SAM,SLTMRSH,Saltmarshe,0,53.72192,-0.80949,,,,,Europe/London,0
SAN,SNDOWN,Sandown,0,50.65687,-1.16239,,,,,Europe/London,0
SAO,SANWBUS,ST ANDREWS BUS,0,0,0,,,,,Europe/London,0
SAQ,MNCRSQY,SALFORD QYS MTLK,1,0,0,,,,,Europe/London,0
SAR,SADWRD,St Andrews Road,0,51.51277,-2.69631,,,,,Europe/London,0
SAS,STAS,St Annes-on-the-Sea,1,53.75303,-3.0291,,,,,Europe/London,0
SAT,SACTON,South Acton,1,51.4997,-0.27016,,,,,Europe/London,0
SAU,STAUSTL,St Austell,1,50.33952,-4.78936,,,,,Europe/London,0
SAV,SOAV,Stratford-upon-Avon,1,52.19425,-1.71629,,,,,Europe/London,0
SAW,SBDGWTH,Sawbridgeworth,0,51.81435,0.16041,,,,,Europe/London,0
SAX,SXMNDHM,Saxmundham,1,52.2149,1.49017,,,,,Europe/London,0
SAY,SWLY,Swanley,2,51.39339,0.16923,,,,,Europe/London,0
SBE,STARBCK,Starbeck,0,53.999,-1.50113,,,,,Europe/London,0
SBF,STBDXFR,St Budeaux Ferry Road,1,50.40139,-4.18681,,,,,Europe/London,0
SBJ,STRBDG1,Stourbridge Junction,9,52.44759,-2.13385,,,,,Europe/London,0
SBK,STHBANK,South Bank,0,54.58383,-1.17667,,,,,Europe/London,0
SBM,SBRMNDS,South Bermondsey,0,51.48814,-0.05468,,,,,Europe/London,0
SBP,STNBGPK,Stonebridge Park,2,51.54411,-0.27583,,,,,Europe/London,0
SBR,SPEANBD,Spean Bridge,0,56.89001,-4.92161,,,,,Europe/London,0
SBS,STBEES,St Bees,0,54.49253,-3.59115,,,,,Europe/London,0
SBT,STRBDGT,Stourbridge Town,0,52.45558,-2.14182,,,,,Europe/London,0
SBU,SBURY,Southbury,0,51.64871,-0.05244,,,,,Europe/London,0
SBV,STBDXVR,St Budeaux Victoria Road,1,50.40201,-4.1874,,,,,Europe/London,0
SBY,SELBY,Selby,1,53.78278,-1.06379,,,,,Europe/London,0
SCA,SCARBRO,Scarborough,1,54.27979,-0.4057,,,,,Europe/London,0
SCB,SCRBSTR,SCRABSTER,1,0,0,,,,,Europe/London,0
SCF,STECHFD,Stechford,0,52.48482,-1.81103,,,,,Europe/London,0
SCG,STCR,Stone Crossing,0,51.45133,0.26377,,,,,Europe/London,0
SCH,SCTSTNH,Scotstounhill,0,55.88514,-4.35289,,,,,Europe/London,0
SCM,MNCRSCM,STH CHADTN MTLK,0,0,0,,,,,Europe/London,0
SCN,STONECS,STONE CROWN ST,1,0,0,,,,,Europe/London,0
SCR,STCLMBR,St Columb Road,0,50.39871,-4.94076,,,,,Europe/London,0
SCS,STRCROS,Starcross,0,50.6278,-3.4477,,,,,Europe/London,0
SCT,SCSCLDR,Scotscalder,0,58.48299,-3.55205,,,,,Europe/London,0
SCU,SCNTHRP,Scunthorpe,1,53.58618,-0.65098,,,,,Europe/London,0
SCY,SCROYDN,South Croydon,1,51.36296,-0.09346,,,,,Europe/London,0
SDA,SNODLND,Snodland,0,51.33023,0.44824,,,,,Europe/London,0
SDB,SBCH,Sandbach,0,53.15017,-2.39351,,,,,Europe/London,0
SDC,SHRDHST,Shoreditch High Street,0,51.52338,-0.07525,,,,,Europe/London,0
SDE,SHADWEL,Shadwell,1,51.51128,-0.05693,,,,,Europe/London,0
SDF,SDRSFOT,Saundersfoot,0,51.72209,-4.71658,,,,,Europe/London,0
SDG,SDLG,Sandling,0,51.09037,1.06604,,,,,Europe/London,0
SDH,SDBRYHH,Sudbury Hill Harrow,0,51.55847,-0.3358,,,,,Europe/London,0
SDI,STFORDI,STRATFRD INT(CIV,0,0,0,,,,,Europe/London,0
SDL,SANDH,Sandhills,2,53.42994,-2.99149,,,,,Europe/London,0
SDM,SHILDMR,Shieldmuir,0,55.77749,-3.95699,,,,,Europe/London,0
SDN,STDENYS,St Denys,1,50.92219,-1.38776,,,,,Europe/London,0
SDP,SDPLACE,Sandplace,0,50.38675,-4.46448,,,,,Europe/London,0
SDR,SUNDRTN,Saunderton,0,51.6759,-0.82547,,,,,Europe/London,0
SDT,CATZSDT,SIDMOUTH BUS,0,0,0,,,,,Europe/London,0
SDW,SWCH,Sandwich,0,51.2699,1.34257,,,,,Europe/London,0
SDY,SNDY,Sandy,1,52.12473,-0.28119,,,,,Europe/London,0
SEA,SEAHAM,Seaham,1,54.83906,-1.34634,,,,,Europe/London,0
SEB,SEABURN,Seaburn,0,54.92954,-1.38669,,,,,Europe/London,0
SEC,SETNCRW,Seaton Carew,0,54.65831,-1.20043,,,,,Europe/London,0
SED,SHELFD,Shelford (Cambs),0,52.14883,0.13998,,,,,Europe/London,0
SEE,SESARDM,Southease,0,50.83127,0.03064,,,,,Europe/London,0
SEF,SEAFORD,Seaford,0,50.77284,0.10013,,,,,Europe/London,0
SEG,SELLING,Selling,0,51.27736,0.94087,,,,,Europe/London,0
SEH,SHRMKT,Shoreham (Kent),0,51.33222,0.18889,,,,,Europe/London,0
SEL,SELAFLD,Sellafield,0,54.41659,-3.51046,,,,,Europe/London,0
SEM,SEAMER,Seamer,1,54.24075,-0.41703,,,,,Europe/London,0
SEN,SHNS,Shenstone,0,52.63936,-1.8442,,,,,Europe/London,0
SER,STERTH,St Erth,1,50.17049,-5.44425,,,,,Europe/London,0
SES,SELMSAL,South Elmsall,0,53.59461,-1.28486,,,,,Europe/London,0
SET,SETTLE,Settle,0,54.06691,-2.28071,,,,,Europe/London,0
SEV,SVNOAKS,Sevenoaks,2,51.27687,0.18167,,,,,Europe/London,0
SEZ,SESABUS,Southease - Piddinghoe Road,1,50.82963,0.01782,,,,,Europe/London,0
SFA,STFODOM,Stratford International,2,51.54483,-0.00878,,,,,Europe/London,0
SFD,SLFDORD,Salford Central,0,53.48308,-2.25484,,,,,Europe/London,0
SFF,SAFFWAL,SAFFRON WLDN BUS,0,0,0,,,,,Europe/London,0
SFI,SHWFAIR,Shawfair,0,55.91994,-3.07871,,,,,Europe/London,0
SFL,SFRTHAL,Seaforth & Litherland,0,53.46627,-3.00562,,,,,Europe/London,0
SFN,SHIFNAL,Shifnal,0,52.66607,-2.37184,,,,,Europe/London,0
SFO,SLEHOPE,Stanford-le-Hope,1,51.51436,0.42304,,,,,Europe/London,0
SFR,SHALFD,Shalford (Surrey),1,51.21432,-0.5668,,,,,Europe/London,0
SGB,GALTILL,Smethwick Galton Bridge,2,52.50178,-1.98051,,,,,Europe/London,0
SGE,SWNAGE,SWANAGE,0,0,0,,,,,Europe/London,0
SGL,STHGYLE,South Gyle,0,55.93635,-3.29948,,,,,Europe/London,0
SGM,STGRMNS,St Germans,0,50.39427,-4.3084,,,,,Europe/London,0
SGN,SGFORD,South Greenford,0,51.53375,-0.3367,,,,,Europe/London,0
SGQ,STONEGS,Stone Granville Square,1,52.90341,-2.1483,,,,,Europe/London,0
SGR,SLADEGN,Slade Green,1,51.46779,0.19049,,,,,Europe/London,0
SHA,SHCRPTN,SHAW & CROM MTLK,0,0,0,,,,,Europe/London,0
SHB,SHRBROK,Shirebrook,0,53.20424,-1.20244,,,,,Europe/London,0
SHC,STHS,Streethouse,0,53.67615,-1.40012,,,,,Europe/London,0
SHD,SHDN,Shildon,1,54.62616,-1.63661,,,,,Europe/London,0
SHE,SHERBRN,Sherborne,0,50.94402,-2.51307,,,,,Europe/London,0
SHF,SHEFFLD,Sheffield,2,53.37822,-1.46211,,,,,Europe/London,0
SHH,SHAMPTN,Shirehampton,0,51.48435,-2.67927,,,,,Europe/London,0
SHI,SHPLAKE,Shiplake,0,51.51146,-0.8826,,,,,Europe/London,0
SHJ,STHLNSJ,St Helens Junction,0,53.43373,-2.70026,,,,,Europe/London,0
SHL,SHWLNDS,Shawlands,0,55.82921,-4.29234,,,,,Europe/London,0
SHM,SHRGHAM,Sheringham,0,52.94143,1.21032,,,,,Europe/London,0
SHN,SHANKLN,Shanklin,0,50.63391,-1.17983,,,,,Europe/London,0
SHO,SHOLING,Sholing,0,50.89675,-1.36491,,,,,Europe/London,0
SHP,SHEPRTN,Shepperton,0,51.3968,-0.44679,,,,,Europe/London,0
SHR,SHRWBY,Shrewsbury,2,52.71193,-2.74976,,,,,Europe/London,0
SHS,SHTT,Shotts,1,55.81865,-3.79832,,,,,Europe/London,0
SHT,RCKCLFH,Shotton,9,53.21254,-3.03842,,,,,Europe/London,0
SHU,STNHPO,Stonehouse,9,51.74589,-2.2795,,,,,Europe/London,0
SHV,SSEACLE,SOUTHSEA HOVERPORT,1,0,0,,,,,Europe/London,0
SHW,SHAWFD,Shawford,0,51.02212,-1.32777,,,,,Europe/London,0
SHX,SHOTTLE,SHOTTLE,0,0,0,,,,,Europe/London,0
SHY,SHPY,Shipley,2,53.83305,-1.77349,,,,,Europe/London,0
SIA,STHEAIR,Southend Airport,0,51.56867,0.70505,,,,,Europe/London,0
SIB,SEHOBUS,SEAHOUSES BUS,0,0,0,,,,,Europe/London,0
SIC,SILCRFT,Silecroft,0,54.22596,-3.33444,,,,,Europe/London,0
SID,SIDCUP,Sidcup,1,51.43387,0.10379,,,,,Europe/London,0
SIE,SHBN,Sherburn-in-Elmet,0,53.79715,-1.23268,,,,,Europe/London,0
SIH,SHLIER,St Helier (London),0,51.3899,-0.19877,,,,,Europe/London,0
SIL,SILEBY,Sileby,1,52.73159,-1.10999,,,,,Europe/London,0
SIN,SINGER,Singer,0,55.90767,-4.40549,,,,,Europe/London,0
SIP,SPTN,Shipton,0,51.86565,-1.59269,,,,,Europe/London,0
SIT,STNGBRN,Sittingbourne,1,51.34198,0.73468,,,,,Europe/London,0
SIV,STIVES,St Ives (Cornwall),0,50.20904,-5.47791,,,,,Europe/London,0
SJP,STJAMSP,St James Park (Devon),0,50.73116,-3.52199,,,,,Europe/London,0
SJS,STJMSST,St James Street (London),0,51.58098,-0.03292,,,,,Europe/London,0
SKE,SKEWEN,Skewen,0,51.66139,-3.84651,,,,,Europe/London,0
SKG,SKEGNES,Skegness,0,53.14318,0.33435,,,,,Europe/London,0
SKI,SKPT,Skipton,2,53.95869,-2.02587,,,,,Europe/London,0
SKM,STKM,Stoke Mandeville,0,51.7878,-0.78409,,,,,Europe/London,0
SKN,STKEYNE,St Keyne Wishing Well Halt (Rail Station),0,50.42304,-4.46352,,,,,Europe/London,0
SKS,STCKSFL,Stocksfield,0,54.94705,-1.91676,,,,,Europe/London,0
SKV,STKEYNV,ST KEYNE VILLAGE,1,0,0,,,,,Europe/London,0
SKW,STKNWNG,Stoke Newington,0,51.56523,-0.07289,,,,,Europe/London,0
SLA,SLATEFD,Slateford,0,55.92669,-3.24346,,,,,Europe/London,0
SLB,SBRN,Saltburn,0,54.58345,-0.97413,,,,,Europe/London,0
SLD,SLFDCT,Salford Crescent,2,53.48659,-2.27575,,,,,Europe/London,0
SLE,SALE,SALE MTLK,1,0,0,,,,,Europe/London,0
SLH,SLEGHTS,Sleights,0,54.46105,-0.66248,,,,,Europe/London,0
SLI,CATZSLI,SLIGO       (CIE,0,0,0,,,,,Europe/Dublin,0
SLK,SKSCMN,Silkstone Common,0,53.53492,-1.56348,,,,,Europe/London,0
SLL,SBROUGH,Stallingborough,0,53.5871,-0.18367,,,,,Europe/London,0
SLO,SLOUGH,Slough,2,51.51188,-0.59151,,,,,Europe/London,0
SLQ,STLNRWS,St Leonards Warrior Square,2,50.8557,0.56028,,,,,Europe/London,0
SLR,SLEFD,Sleaford,1,52.99547,-0.41035,,,,,Europe/London,0
SLS,SHTLSTN,Shettleston,0,55.85354,-4.16004,,,,,Europe/London,0
SLT,SLCT,Saltcoats,0,55.63388,-4.78429,,,,,Europe/London,0
SLV,SIVRST,Silver Street,0,51.61469,-0.06724,,,,,Europe/London,0
SLW,SALWICK,Salwick,0,53.78154,-2.81704,,,,,Europe/London,0
SLY,SELYOAK,Selly Oak,1,52.44198,-1.93581,,,,,Europe/London,0
SMA,SMLHTH,Small Heath,0,52.46376,-1.85939,,,,,Europe/London,0
SMB,SMBG,Smithy Bridge,0,53.63325,-2.1135,,,,,Europe/London,0
SMC,SAMPCRT,Sampford Courtenay,0,50.7701,-3.94889,,,,,Europe/London,0
SMD,STAMFD,Stamford,1,52.64783,-0.48012,,,,,Europe/London,0
SMG,STMGTS,St Margarets (London),0,51.45524,-0.3202,,,,,Europe/London,0
SMH,STMFDHL,Stamford Hill,0,51.57447,-0.07668,,,,,Europe/London,0
SMK,HAGHLYJ,Stowmarket,9,52.18971,1.00001,,,,,Europe/London,0
SML,SEMILLS,Sea Mills,0,51.47999,-2.64995,,,,,Europe/London,0
SMM,SDMMTLK,SHADOWMOSS MTLK,0,0,0,,,,,Europe/London,0
SMN,SMINSTR,Southminster,0,51.66062,0.83519,,,,,Europe/London,0
SMO,SMERTON,South Merton,0,51.40299,-0.20516,,,,,Europe/London,0
SMQ,STMAQUY,ST MARY'S QUAY,0,0,0,,,,,Europe/London,0
SMR,SMTHKRS,Smethwick Rolfe Street,0,52.49638,-1.97064,,,,,Europe/London,0
SMT,SMARGRT,St Margarets (Herts),0,51.78784,0.00127,,,,,Europe/London,0
SMY,STMRYC,St Mary Cray,1,51.39475,0.10638,,,,,Europe/London,0
SNA,SABR,Sandal & Agbrigg,0,53.66308,-1.48142,,,,,Europe/London,0
SND,SNDHRST,Sandhurst,0,51.34693,-0.80459,,,,,Europe/London,0
SNE,STONE,Stone,1,52.90833,-2.15504,,,,,Europe/London,0
SNF,SHENFLD,Shenfield,2,51.63088,0.32985,,,,,Europe/London,0
SNG,SUNNGDL,Sunningdale,0,51.39194,-0.63304,,,,,Europe/London,0
SNH,STHLNSC,St Helens Central,1,53.45312,-2.7303,,,,,Europe/London,0
SNI,SNAITH,Snaith,0,53.69311,-1.02846,,,,,Europe/London,0
SNK,SANKEY,Sankey for Penketh,0,53.39246,-2.65047,,,,,Europe/London,0
SNL,STLEIGH,Stoneleigh,0,51.3634,-0.24867,,,,,Europe/London,0
SNN,SWNT,Swinton (Manchester),0,53.51483,-2.33746,,,,,Europe/London,0
SNO,STNEOTS,St Neots,2,52.23157,-0.24741,,,,,Europe/London,0
SNR,SDSD,Sanderstead,0,51.34828,-0.09368,,,,,Europe/London,0
SNS,STAINES,Staines,2,51.43246,-0.50316,,,,,Europe/London,0
SNT,STNLWAT,Stanlow & Thornton,0,53.27836,-2.84205,,,,,Europe/London,0
SNW,SWNWICK,Swanwick,1,50.87567,-1.26585,,,,,Europe/London,0
SNY,SUNYMDS,Sunnymeads,0,51.47029,-0.55937,,,,,Europe/London,0
SOA,SOTPKWY,Southampton Airport Parkway,2,50.95082,-1.3631,,,,,Europe/London,0
SOB,SBOUBUS,Southbourne,9,50.84828,-0.90811,,,,,Europe/London,0
SOC,STHCENT,Southend Central,1,51.53706,0.71173,,,,,Europe/London,0
SOE,STHNDE,Southend East,0,51.53897,0.73181,,,,,Europe/London,0
SOF,WDHAMFR,South Woodham Ferrers,0,51.64946,0.60651,,,,,Europe/London,0
SOG,SNGT,Stonegate,0,51.01997,0.36387,,,,,Europe/London,0
SOH,SHMPSTD,South Hampstead,0,51.54143,-0.17888,,,,,Europe/London,0
SOI,STOW,Stow,0,55.69232,-2.86689,,,,,Europe/London,0
SOK,SKENTON,South Kenton,0,51.57021,-0.30846,,,,,Europe/London,0
SOL,SOLIHUL,Solihull,1,52.41439,-1.78839,,,,,Europe/London,0
SOM,SMILFD,South Milford,0,53.78233,-1.25053,,,,,Europe/London,0
SON,STEETON,Steeton & Silsden,0,53.90003,-1.94472,,,,,Europe/London,0
SOO,STROOD,Strood,1,51.39655,0.50019,,,,,Europe/London,0
SOP,SOUTHPT,Southport,1,53.64652,-3.00243,,,,,Europe/London,0
SOR,SOLEST,Sole Street,0,51.38315,0.3781,,,,,Europe/London,0
SOS,SNSS,STROMNESS ORKNEY,0,0,0,,,,,Europe/London,0
SOT,STOKEOT,Stoke-on-Trent,2,53.00798,-2.18099,,,,,Europe/London,0
SOU,SOTON,Southampton Central,2,50.90745,-1.4136,,,,,Europe/London,0
SOV,STHVIC,Southend Victoria,1,51.54151,0.7115,,,,,Europe/London,0
SOW,MLNRYDJ,Sowerby Bridge,9,53.70785,-1.90702,,,,,Europe/London,0
SOY,STWY,STORNOWAY,0,0,0,,,,,Europe/London,0
SPA,SPALDNG,Spalding,0,52.78881,-0.15688,,,,,Europe/London,0
SPB,SHPDSB,Shepherds Bush,0,51.50528,-0.21765,,,,,Europe/London,0
SPF,SPFD,Springfield,0,56.29497,-3.05245,,,,,Europe/London,0
SPH,SWELL,Shepherds Well,1,51.1884,1.22991,,,,,Europe/London,0
SPI,SPITAL,Spital,0,53.33994,-2.99391,,,,,Europe/London,0
SPK,STTNPWY,Sutton Parkway,0,53.11409,-1.24557,,,,,Europe/London,0
SPM,SWPMTLK,SALE W PARK MTLK,0,0,0,,,,,Europe/London,0
SPN,SPONRRW,Spooner Row,0,52.535,1.08648,,,,,Europe/London,0
SPO,SPDN,Spondon,0,52.91222,-1.41109,,,,,Europe/London,0
SPP,SPHL,Shippea Hill,0,52.43021,0.41335,,,,,Europe/London,0
SPR,SPRNGBN,Springburn,1,55.88194,-4.23053,,,,,Europe/London,0
SPS,STEPPS,Stepps,0,55.89014,-4.14081,,,,,Europe/London,0
SPT,STKP,Stockport,2,53.40554,-2.16301,,,,,Europe/London,0
SPU,SPHS,Staplehurst,0,51.17147,0.55044,,,,,Europe/London,0
SPX,STPANCI,LONDON ST PANCRAS INTL,1,0,0,,,,,Europe/London,0
SPY,SPLY,Shepley,0,53.58874,-1.70493,,,,,Europe/London,0
SQE,SURREYQ,Surrey Quays,1,51.4932,-0.04752,,,,,Europe/London,0
SQH,SANQHAR,Sanquhar,0,55.37017,-3.92452,,,,,Europe/London,0
SQU,SQUIRES,Squires Gate,0,53.77733,-3.0503,,,,,Europe/London,0
SRA,STFD,Stratford (London),2,51.5419,-0.0034,,,,,Europe/London,0
SRC,STRHCOM,Streatham Common,2,51.41873,-0.13601,,,,,Europe/London,0
SRD,STPLTNR,Stapleton Road,1,51.46751,-2.56622,,,,,Europe/London,0
SRF,SFRD,STRETFORD MTLK,1,0,0,,,,,Europe/London,0
SRG,SEERGRN,Seer Green,0,51.60984,-0.60782,,,,,Europe/London,0
SRH,STRHILL,Streatham Hill,2,51.43819,-0.12716,,,,,Europe/London,0
SRI,SPRD,Spring Road,1,52.44342,-1.83739,,,,,Europe/London,0
SRL,SHIRLEY,Shirley,1,52.40342,-1.84518,,,,,Europe/London,0
SRN,STRINES,Strines,0,53.37504,-2.03392,,,,,Europe/London,0
SRO,SHRKSKS,Shireoaks,0,53.32477,-1.16799,,,,,Europe/London,0
SRR,SARN,Sarn,0,51.53872,-3.58991,,,,,Europe/London,0
SRS,SELHRST,Selhurst,2,51.39193,-0.0883,,,,,Europe/London,0
SRT,SHRTLND,Shortlands,2,51.4058,0.00178,,,,,Europe/London,0
SRU,SRUISLP,South Ruislip,2,51.55692,-0.39926,,,,,Europe/London,0
SRY,SHBRYNS,Shoeburyness,0,51.53097,0.79534,,,,,Europe/London,0
SSA,SESAA26,SOUTHEASE A26,1,0,0,,,,,Europe/London,0
SSC,SEASCAL,Seascale,0,54.39588,-3.48451,,,,,Europe/London,0
SSD,STANAIR,Stansted Airport,1,51.88859,0.26082,,,,,Europe/London,0
SSE,SHRHMBS,Shoreham-by-Sea (Sussex),1,50.83443,-0.27172,,,,,Europe/London,0
SSM,STKSMR,Stocksmoor,0,53.59409,-1.72325,,,,,Europe/London,0
SSS,SHRNSOS,Sheerness-on-Sea,0,51.44106,0.75853,,,,,Europe/London,0
SST,STANMFC,Stansted Mountfitchet,0,51.90144,0.19978,,,,,Europe/London,0
STA,STAFFRD,Stafford,2,52.80389,-2.12204,,,,,Europe/London,0
STC,STCN,Strathcarron,0,57.42273,-5.42861,,,,,Europe/London,0
STD,STRUD,Stroud (Glos),1,51.74462,-2.21938,,,,,Europe/London,0
STE,STRETHM,Streatham,2,51.42581,-0.13155,,,,,Europe/London,0
STF,STRMFRY,Stromeferry,0,57.3523,-5.55116,,,,,Europe/London,0
STG,STIRLNG,Stirling,2,56.11982,-3.93562,,,,,Europe/London,0
STH,SHPRTH,Shepreth,0,52.11416,0.03132,,,,,Europe/London,0
STI,STDI,STADIUM OF LIGHT,0,0,0,,,,,Europe/London,0
STJ,SEVTNLJ,Severn Tunnel Junction,1,51.58468,-2.77789,,,,,Europe/London,0
STK,STOCTON,Stockton,0,54.56962,-1.31854,,,,,Europe/London,0
STL,STHALL,Southall,1,51.50596,-0.37861,,,,,Europe/London,0
STM,STMCHLS,St Michaels,0,53.3756,-2.9528,,,,,Europe/London,0
STN,SHVN,Stonehaven,0,56.96682,-2.2253,,,,,Europe/London,0
STO,STOTNHM,South Tottenham,1,51.58037,-0.0721,,,,,Europe/London,0
STP,STPADOM,London St Pancras International,9,51.53239,-0.12719,,,,,Europe/London,0
STQ,SOTNTQ,SOTON TOWN QUAY,1,0,0,,,,,Europe/London,0
STR,STRNRR,Stranraer,0,54.9096,-5.02474,,,,,Europe/London,0
STS,SASH,Saltash,0,50.40736,-4.20911,,,,,Europe/London,0
STT,STEWRTN,Stewarton,0,55.68215,-4.51806,,,,,Europe/London,0
STU,STURRY,Sturry,0,51.30107,1.12226,,,,,Europe/London,0
STV,STVNSTN,Stevenston,0,55.63428,-4.75079,,,,,Europe/London,0
STW,STRWBYH,Strawberry Hill,1,51.43896,-0.33936,,,,,Europe/London,0
STY,SOAVPWY,Stratford-upon-Avon Parkway,0,52.20678,-1.73084,,,,,Europe/London,0
STZ,SNDRMNK,St Peters,0,54.91144,-1.3838,,,,,Europe/London,0
SUC,SUTTONC,Sutton Common,0,51.37489,-0.19634,,,,,Europe/London,0
SUD,SDBRYHR,Sudbury & Harrow Road,0,51.5544,-0.31547,,,,,Europe/London,0
SUG,SGRLOAF,Sugar Loaf,0,52.08227,-3.68695,,,,,Europe/London,0
SUM,SUMRSTN,Summerston,0,55.89884,-4.29154,,,,,Europe/London,0
SUN,SNDRLND,Sunderland,1,54.90534,-1.3823,,,,,Europe/London,0
SUO,SUTTON,Sutton (London),2,51.35953,-0.19121,,,,,Europe/London,0
SUP,SNDP,Sundridge Park,0,51.41378,0.02145,,,,,Europe/London,0
SUR,SURBITN,Surbiton,2,51.39246,-0.30396,,,,,Europe/London,0
SUT,SUTCO,Sutton Coldfield,1,52.56494,-1.82484,,,,,Europe/London,0
SUU,SUNBURY,Sunbury,0,51.41831,-0.41778,,,,,Europe/London,0
SUY,SUDBURY,Sudbury (Suffolk),0,52.03628,0.73544,,,,,Europe/London,0
SVB,SVRNBCH,Severn Beach,0,51.56003,-2.66448,,,,,Europe/London,0
SVG,STEVNGE,Stevenage,2,51.90169,-0.20711,,,,,Europe/London,0
SVK,SVNKNGS,Seven Kings,0,51.56403,0.0971,,,,,Europe/London,0
SVL,STAVELY,Staveley,0,54.37553,-2.81886,,,,,Europe/London,0
SVR,SDAL,Silverdale,0,54.16991,-2.80384,,,,,Europe/London,0
SVS,SEVNSIS,Seven Sisters,2,51.58227,-0.07527,,,,,Europe/London,0
SWA,SWANSEA,Swansea,2,51.62515,-3.94155,,,,,Europe/London,0
SWB,PBROSTI,SWAFFHAM (COACH),0,0,0,,,,,Europe/London,0
SWD,SWNDRBY,Swinderby,0,53.16956,-0.70268,,,,,Europe/London,0
SWE,SWSHEAD,Swineshead,0,52.9698,-0.18717,,,,,Europe/London,0
SWG,SWYTHLN,Swaythling,0,50.94115,-1.37641,,,,,Europe/London,0
SWI,SDON,Swindon,2,51.56547,-1.78551,,,,,Europe/London,0
SWJ,MNCRSWM,ST WERBURGH MTLK,1,0,0,,,,,Europe/London,0
SWK,STHWICK,Southwick,0,50.83252,-0.23596,,,,,Europe/London,0
SWL,SWALE,Swale,0,51.38924,0.74713,,,,,Europe/London,0
SWM,SWNSCMB,Swanscombe,0,51.44907,0.30954,,,,,Europe/London,0
SWN,SWINTN,Swinton (South Yorks),1,53.48624,-1.30582,,,,,Europe/London,0
SWO,SNWDNAN,Snowdown,0,51.2153,1.21371,,,,,Europe/London,0
SWR,STWRTBY,Stewartby,0,52.06908,-0.52069,,,,,Europe/London,0
SWS,WGSTS,South Wigston,0,52.58222,-1.13408,,,,,Europe/London,0
SWT,SLTHWTC,Slaithwaite,9,53.62383,-1.88158,,,,,Europe/London,0
SWY,SWAY,Sway,0,50.7847,-1.61,,,,,Europe/London,0
SXY,SAXILBY,Saxilby,1,53.2672,-0.66404,,,,,Europe/London,0
SYA,STYAL,Styal,0,53.34833,-2.24046,,,,,Europe/London,0
SYB,SBYD,Stalybridge,2,53.48458,-2.06274,,,,,Europe/London,0
SYD,SYDENHM,Sydenham,0,51.42725,-0.05424,,,,,Europe/London,0
SYH,SYDNFD,Sydenham Hill,9,51.43271,-0.08034,,,,,Europe/London,0
SYL,SYONLA,Syon Lane,0,51.48178,-0.32484,,,,,Europe/London,0
SYS,SYSTON,Syston,0,52.69421,-1.0824,,,,,Europe/London,0
SYT,SMRLYTN,Somerleyton,0,52.51023,1.65226,,,,,Europe/London,0
TAB,TAMEBDG,Tame Bridge Parkway,1,52.55293,-1.97621,,,,,Europe/London,0
TAC,TACKLEY,Tackley,0,51.88124,-1.29754,,,,,Europe/London,0
TAD,TADWTH,Tadworth,0,51.29164,-0.23596,,,,,Europe/London,0
TAF,TAFFSWL,Taffs Well,1,51.5408,-3.26294,,,,,Europe/London,0
TAI,TAIN,Tain,0,57.81442,-4.05205,,,,,Europe/London,0
TAL,TLSRNAU,Talsarnau,0,52.90431,-4.06815,,,,,Europe/London,0
TAM,TMWTHLL,Tamworth,2,52.63747,-1.68646,,,,,Europe/London,0
TAP,TAPLOW,Taplow,0,51.52356,-0.68137,,,,,Europe/London,0
TAT,TATNHMC,Tattenham Corner,0,51.30918,-0.24261,,,,,Europe/London,0
TAU,TAUNTON,Taunton,2,51.0233,-3.10274,,,,,Europe/London,0
TAY,TAYNULT,Taynuilt,0,56.43081,-5.23961,,,,,Europe/London,0
TBD,THBDGS,Three Bridges,2,51.11692,-0.16118,,,,,Europe/London,0
TBM,TFBMTLK,TRAFFRD BAR MTLK,0,0,0,,,,,Europe/London,0
TBR,TLBYRSD,TILBURY RIVERSIDE,1,0,0,,,,,Europe/London,0
TBW,TUNWELL,Tunbridge Wells,2,51.13023,0.26281,,,,,Europe/London,0
TBY,TABY,Thornaby,1,54.55927,-1.30141,,,,,Europe/London,0
TCR,TOTCTRD,TOTTENHAM COURT ROAD CROSS,3,0,0,,,,,Europe/London,0
TDU,TONDU,Tondu,0,51.54736,-3.59555,,,,,Europe/London,0
TEA,TSDARPR,Tees-side Airport,0,54.51813,-1.42531,,,,,Europe/London,0
TED,TEDNGTN,Teddington,1,51.42448,-0.33271,,,,,Europe/London,0
TEM,CATZTEM,TEMPLEMORE  (CIE,0,0,0,,,,,Europe/Dublin,0
TEN,TENBY,Tenby,1,51.67294,-4.7067,,,,,Europe/London,0
TEO,THBLDSG,Theobalds Grove,0,51.69246,-0.03483,,,,,Europe/London,0
TEY,TEYNDVC,Teynham,9,51.33339,0.80743,,,,,Europe/London,0
TFC,TELFRDC,Telford Central,2,52.68111,-2.44097,,,,,Europe/London,0
TGM,TEINMTH,Teignmouth,1,50.54806,-3.49466,,,,,Europe/London,0
TGS,TYGLAS,Ty Glas,0,51.52154,-3.19653,,,,,Europe/London,0
THA,THATCHM,Thatcham,0,51.39384,-1.24319,,,,,Europe/London,0
THB,THLB,Thornliebank,0,55.8111,-4.31171,,,,,Europe/London,0
THC,TRNO,Thurnscoe,0,53.54504,-1.30878,,,,,Europe/London,0
THD,TDITTON,Thames Ditton,0,51.3891,-0.33915,,,,,Europe/London,0
THE,THEALE,Theale,0,51.43345,-1.07497,,,,,Europe/London,0
THH,THHT,Thatto Heath,0,53.43658,-2.75937,,,,,Europe/London,0
THI,THIRSK,Thirsk,0,54.22821,-1.37259,,,,,Europe/London,0
THL,TILEH,Tile Hill,0,52.3951,-1.59685,,,,,Europe/London,0
THM,CATZTHM,THOMASTOWN  (CIE,0,0,0,,,,,Europe/Dublin,0
THO,THFORD,Thornford,0,50.91058,-2.57899,,,,,Europe/London,0
THS,THURSO,Thurso,1,58.59018,-3.52755,,,,,Europe/London,0
THT,THAL,Thorntonhall,0,55.76868,-4.25116,,,,,Europe/London,0
THU,THRGRTN,Thurgarton,0,53.02894,-0.96226,,,,,Europe/London,0
THW,HNDSHWT,The Hawthorns,0,52.50537,-1.96401,,,,,Europe/London,0
TIL,TLBYTWN,Tilbury Town,1,51.46236,0.35404,,,,,Europe/London,0
TIM,TIMPRLY,TIMPERLEY,1,0,0,,,,,Europe/London,0
TIP,TIPTON,Tipton,0,52.53044,-2.0657,,,,,Europe/London,0
TIR,TIRPHIL,Tir-phil,0,51.72091,-3.24638,,,,,Europe/London,0
TIS,TISBURY,Tisbury,1,51.06085,-2.079,,,,,Europe/London,0
TLB,TALB,Talybont,0,52.77263,-4.0966,,,,,Europe/London,0
TLC,TALYCFN,Tal-y-Cafn,0,53.22836,-3.81826,,,,,Europe/London,0
TLH,TILHRST,Tilehurst,2,51.47151,-1.02982,,,,,Europe/London,0
TLK,THELAKS,The Lakes,0,52.35914,-1.84467,,,,,Europe/London,0
TLS,THPLESK,Thorpe-le-Soken,1,51.84764,1.1614,,,,,Europe/London,0
TMC,TMPCMB,Templecombe,1,51.0015,-2.41772,,,,,Europe/London,0
TNA,THABBEY,Thornton Abbey,0,53.6543,-0.32302,,,,,Europe/London,0
TNF,TONFNAU,Tonfanau,0,52.61354,-4.1237,,,,,Europe/London,0
TNN,THORNEN,Thorne North,0,53.61606,-0.97233,,,,,Europe/London,0
TNP,TNYPNDY,Tonypandy,0,51.61976,-3.44887,,,,,Europe/London,0
TNS,THORNES,Thorne South,0,53.60333,-0.95511,,,,,Europe/London,0
TOD,TODMRDN,Todmorden,1,53.71382,-2.09966,,,,,Europe/London,0
TOK,THOK,Three Oaks,0,50.90112,0.61305,,,,,Europe/London,0
TOL,TOLWTH,Tolworth,1,51.37686,-0.27946,,,,,Europe/London,0
TOM,TTNHMHL,Tottenham Hale,2,51.58831,-0.05993,,,,,Europe/London,0
TON,TONBDG,Tonbridge,2,51.19141,0.27097,,,,,Europe/London,0
TOO,TOOTING,Tooting,2,51.41985,-0.16128,,,,,Europe/London,0
TOP,TOPSHAM,Topsham,0,50.68622,-3.46442,,,,,Europe/London,0
TOT,TOTNES,Totnes,1,50.43587,-3.68869,,,,,Europe/London,0
TPB,THOPBAY,Thorpe Bay,1,51.53757,0.76173,,,,,Europe/London,0
TPC,TCULVRT,Thorpe Culvert,0,53.12309,0.19942,,,,,Europe/London,0
TPN,TONPNTR,Ton Pentre,0,51.6478,-3.48619,,,,,Europe/London,0
TPY,CATZTPY,TIPPERARY   (CIE,0,0,0,,,,,Europe/Dublin,0
TQY,TORQUAY,Torquay,0,50.46113,-3.54328,,,,,Europe/London,0
TRA,TRFDPK,Trafford Park,0,53.45482,-2.31063,,,,,Europe/London,0
TRB,TREHRBT,Treherbert,0,51.67224,-3.5363,,,,,Europe/London,0
TRD,TRDYRHW,Troed-y-Rhiw,0,51.71243,-3.34674,,,,,Europe/London,0
TRE,TRFRSTE,Trefforest Estate,0,51.56829,-3.29025,,,,,Europe/London,0
TRF,TREFRST,Trefforest,0,51.59146,-3.32512,,,,,Europe/London,0
TRH,TREHAFD,Trehafod,0,51.61015,-3.38097,,,,,Europe/London,0
TRI,TRING,Tring,1,51.80074,-0.62244,,,,,Europe/London,0
TRL,TRALEE,TRALEE      (CIE,0,0,0,,,,,Europe/Dublin,0
TRM,TRIMLEY,Trimley,0,51.97653,1.31954,,,,,Europe/London,0
TRN,TROON,Troon,1,55.54281,-4.6553,,,,,Europe/London,0
TRO,TRWBRDG,Trowbridge,1,51.31983,-2.21433,,,,,Europe/London,0
TRR,TORRE,Torre,0,50.47319,-3.54642,,,,,Europe/London,0
TRS,THUSTON,Thurston,0,52.25,0.80865,,,,,Europe/London,0
TRU,TRURO,Truro,1,50.26384,-5.06481,,,,,Europe/London,0
TRY,TREORCY,Treorchy,0,51.65753,-3.50573,,,,,Europe/London,0
TTA,TADWBUS,Tadworth - The Avenue,1,51.29101,-0.23599,,,,,Europe/London,0
TTF,THETFD,Thetford,2,52.41913,0.74507,,,,,Europe/London,0
TTH,THTH,Thornton Heath,0,51.39878,-0.10031,,,,,Europe/London,0
TTN,TOTTON,Totton,1,50.91788,-1.48242,,,,,Europe/London,0
TUH,TULSEH,Tulse Hill,2,51.43986,-0.10508,,,,,Europe/London,0
TUL,TULLOCH,Tulloch,0,56.88428,-4.70132,,,,,Europe/London,0
TUM,CATZTUM,TULLAMORE   (CIE,0,0,0,,,,,Europe/Dublin,0
TUR,TURKYST,Turkey Street,0,51.67263,-0.04722,,,,,Europe/London,0
TUS,CATZTUS,THURLES     (CIE,1,0,0,,,,,Europe/Dublin,0
TUT,TUTBURY,Tutbury & Hatton,0,52.86414,-1.68223,,,,,Europe/London,0
TVP,TIVIPW,Tiverton Parkway,1,50.91718,-3.35964,,,,,Europe/London,0
TWB,TWDBANK,Tweedbank,0,55.60545,-2.7576,,,,,Europe/London,0
TWI,TWCKNHM,Twickenham,2,51.45003,-0.33039,,,,,Europe/London,0
TWN,TOWNGRN,Town Green,0,53.54281,-2.90449,,,,,Europe/London,0
TWY,TWYFORD,Twyford,1,51.47553,-0.86329,,,,,Europe/London,0
TYC,TYCROES,Ty Croes,0,53.22256,-4.47473,,,,,Europe/London,0
TYG,TYGWYN,Tygwyn,0,52.89379,-4.07865,,,,,Europe/London,0
TYL,TYNDRML,Tyndrum Lower,0,56.43334,-4.71482,,,,,Europe/London,0
TYS,TYSL,Tyseley,1,52.45412,-1.83912,,,,,Europe/London,0
TYW,TYWYN,Tywyn,0,52.58558,-4.09356,,,,,Europe/London,0
UCK,UCKFILD,Uckfield,0,50.96874,0.09638,,,,,Europe/London,0
UDD,UDNGSTN,Uddingston,0,55.82353,-4.0867,,,,,Europe/London,0
UHA,UPHALL,Uphall,0,55.91904,-3.50212,,,,,Europe/London,0
UHL,UPRHLWY,Upper Holloway,0,51.56363,-0.12951,,,,,Europe/London,0
UIG,UIGG,UIG BUS,1,0,0,,,,,Europe/London,0
ULC,ULCEBY,Ulceby,0,53.6192,-0.30083,,,,,Europe/London,0
ULL,ULESKLF,Ulleskelf,0,53.85361,-1.21397,,,,,Europe/London,0
ULP,ULLAPOL,ULLAPOOL,1,0,0,,,,,Europe/London,0
ULV,ULVRSTN,Ulverston,0,54.19158,-3.09792,,,,,Europe/London,0
UMB,UMBRLGH,Umberleigh,0,50.99675,-3.98289,,,,,Europe/London,0
UNI,UNVRSYB,University,1,52.45124,-1.93668,,,,,Europe/London,0
UPH,UHALIFD,Upper Halliford,0,51.41307,-0.43091,,,,,Europe/London,0
UPL,UPHOLND,Upholland,0,53.52838,-2.7414,,,,,Europe/London,0
UPM,UPMNSP6,Upminster,9,51.55902,0.25088,,,,,Europe/London,0
UPT,UPTON,Upton,0,53.38649,-3.08415,,,,,Europe/London,0
UPW,UPWEY,Upwey,1,50.64827,-2.46614,,,,,Europe/London,0
URM,URMSTON,Urmston,0,53.44827,-2.3538,,,,,Europe/London,0
UTT,UTOXETR,Uttoxeter,0,52.89679,-1.85725,,,,,Europe/London,0
UTY,TYNDRMU,Upper Tyndrum,0,56.43466,-4.70372,,,,,Europe/London,0
UWL,UWRLNGH,Upper Warlingham,0,51.30851,-0.07795,,,,,Europe/London,0
VAL,VALLEY,Valley,0,53.28128,-4.56337,,,,,Europe/London,0
VIC,VICTRIA,London Victoria,3,51.49526,-0.14454,,,,,Europe/London,0
VIR,VRGNWTR,Virginia Water,2,51.4018,-0.56217,,,,,Europe/London,0
VPM,MNCRVPM,VELOPARK MTLK,0,0,0,,,,,Europe/London,0
VXH,VAUXHAL,Vauxhall,9,51.48619,-0.12289,,,,,Europe/London,0
WAC,WRGT,Warrington Central,2,53.39182,-2.59317,,,,,Europe/London,0
WAD,WADHRST,Wadhurst,1,51.07346,0.31317,,,,,Europe/London,0
WAE,WLOE,London Waterloo East,3,51.50408,-0.1089,,,,,Europe/London,0
WAF,WALLYFD,Wallyford,0,55.94028,-3.01495,,,,,Europe/London,0
WAL,WONT,Walton-on-Thames,0,51.37293,-0.41463,,,,,Europe/London,0
WAM,WALMER,Walmer,0,51.20332,1.38287,,,,,Europe/London,0
WAN,WANBRO,Wanborough,0,51.24452,-0.66759,,,,,Europe/London,0
WAO,WALTONM,Walton (Merseyside),1,53.45622,-2.96575,,,,,Europe/London,0
WAR,WARE,Ware,0,51.80796,-0.02878,,,,,Europe/London,0
WAS,WATONAS,Watton-at-Stone,0,51.85644,-0.11943,,,,,Europe/London,0
WAT,WATRINT,London Waterloo,9,51.5033,-0.11311,,,,,Europe/London,0
WAV,WVRTTEC,Wavertree Technology Park,0,53.40519,-2.92291,,,,,Europe/London,0
WAW,WRGTWST,WARRINGTON WEST,0,0,0,,,,,Europe/London,0
WBC,WATBECH,Waterbeach,0,52.26231,0.19679,,,,,Europe/London,0
WBD,WHTBDGE,Whitley Bridge,0,53.69913,-1.15828,,,,,Europe/London,0
WBE,WDBDGBS,WADEBRIDGE BUS,0,0,0,,,,,Europe/London,0
WBL,WRBLNGT,Warblington,0,50.85345,-0.96716,,,,,Europe/London,0
WBO,WIMLCHS,Wimbledon Chase,0,51.40956,-0.21403,,,,,Europe/London,0
WBP,WBRMPTN,West Brompton,0,51.48706,-0.19559,,,,,Europe/London,0
WBQ,WRGTNBQ,Warrington Bank Quay,2,53.38601,-2.60236,,,,,Europe/London,0
WBR,WHALYBG,Whaley Bridge,0,53.33023,-1.98465,,,,,Europe/London,0
WBY,WBYFLET,West Byfleet,0,51.33923,-0.50549,,,,,Europe/London,0
WCB,WCOMBEP,Westcombe Park,0,51.4842,0.01839,,,,,Europe/London,0
WCF,WCLIFF,Westcliff-on-Sea,0,51.53733,0.69147,,,,,Europe/London,0
WCH,WHTCHRH,Whitchurch (Hants),0,51.23754,-1.33775,,,,,Europe/London,0
WCK,WICK,Wick,0,58.44157,-3.09686,,,,,Europe/London,0
WCL,WCALDER,West Calder,1,55.8538,-3.56702,,,,,Europe/London,0
WCM,WCKHMMR,Wickham Market,0,52.1511,1.39868,,,,,Europe/London,0
WCP,WRCSTRP,Worcester Park,1,51.38125,-0.24517,,,,,Europe/London,0
WCR,WTCR,Whitecraigs,0,55.79032,-4.31016,,,,,Europe/London,0
WCT,WATCHET,WATCHET BUS,0,0,0,,,,,Europe/London,0
WCX,WEMBLSM,Wembley Stadium,1,51.55442,-0.28561,,,,,Europe/London,0
WCY,WCROYDN,West Croydon,2,51.37843,-0.10259,,,,,Europe/London,0
WDB,WODBDGE,Woodbridge,1,52.09045,1.31777,,,,,Europe/London,0
WDD,WDRNGTN,Widdrington,0,55.24131,-1.61647,,,,,Europe/London,0
WDE,WDND,Wood End,0,52.34368,-1.84421,,,,,Europe/London,0
WDH,WDHOUSE,Woodhouse,1,53.36374,-1.35755,,,,,Europe/London,0
WDI,MNCRWDI,W DIDSBURY MTLK,0,0,0,,,,,Europe/London,0
WDL,WHHL,Woodhall,0,55.93121,-4.6554,,,,,Europe/London,0
WDM,WMER,Windermere,0,54.3796,-2.90339,,,,,Europe/London,0
WDN,WDEN,Walsden,0,53.69626,-2.10446,,,,,Europe/London,0
WDO,WADDON,Waddon,0,51.3674,-0.11734,,,,,Europe/London,0
WDR,WDLNDSR,QUEENS ROAD MTLK,1,0,0,,,,,Europe/London,0
WDS,WDLESFD,Woodlesford,0,53.75679,-1.44288,,,,,Europe/London,0
WDT,WDRYTON,West Drayton,1,51.51005,-0.47223,,,,,Europe/London,0
WDU,WDULCRD,West Dulwich,9,51.44072,-0.09137,,,,,Europe/London,0
WEA,WEALING,West Ealing,1,51.51351,-0.32013,,,,,Europe/London,0
WED,WEDGWD,WEDGWOOD,0,0,0,,,,,Europe/London,0
WEE,WEELEY,Weeley,0,51.8531,1.11548,,,,,Europe/London,0
WEH,WHAMHL,West Ham,1,51.52849,0.00543,,,,,Europe/London,0
WEL,WLNGBRO,Wellingborough,1,52.30378,-0.67665,,,,,Europe/London,0
WEM,WEMM,Wem,0,52.85641,-2.71802,,,,,Europe/London,0
WEO,WEDGORD,WEDGWOOD OLD RD,1,0,0,,,,,Europe/London,0
WER,WEDGORB,Wedgwood Lane,1,52.95426,-2.1587,,,,,Europe/London,0
WES,WESTRTN,Westerton,1,55.90481,-4.33488,,,,,Europe/London,0
WET,WEETON,Weeton,0,53.92318,-1.58122,,,,,Europe/London,0
WEY,WEYMTH,Weymouth,1,50.61531,-2.45422,,,,,Europe/London,0
WFD,WATERFD,WATERFORD   (CIE,1,0,0,,,,,Europe/Dublin,0
WFF,WHIFLET,Whifflet,1,55.85369,-4.01866,,,,,Europe/London,0
WFH,WATFDHS,Watford High Street,0,51.65265,-0.39171,,,,,Europe/London,0
WFI,WSTRFLD,Westerfield,1,52.08098,1.1659,,,,,Europe/London,0
WFJ,WATFDJ,Watford Junction,2,51.66391,-0.39593,,,,,Europe/London,0
WFL,WAINFLT,Wainfleet,1,53.10513,0.23473,,,,,Europe/London,0
WFN,WATFDN,Watford North,0,51.6757,-0.38993,,,,,Europe/London,0
WGA,WESGTOS,Westgate-on-Sea,0,51.38145,1.33836,,,,,Europe/London,0
WGC,WLWYNGC,Welwyn Garden City,2,51.80105,-0.20407,,,,,Europe/London,0
WGN,WIGANNW,Wigan North Western,2,53.54366,-2.63327,,,,,Europe/London,0
WGR,WDGRNPK,Woodgrange Park,0,51.54926,0.04442,,,,,Europe/London,0
WGT,WIGTON,Wigton,0,54.82912,-3.16434,,,,,Europe/London,0
WGV,WARGRAV,Wargrave,0,51.49816,-0.87652,,,,,Europe/London,0
WGW,WIGANWL,Wigan Wallgate,2,53.54482,-2.63319,,,,,Europe/London,0
WHA,WENHNGR,Westenhanger,1,51.09496,1.03805,,,,,Europe/London,0
WHC,WLTWCEN,Walthamstow Central,1,51.58292,-0.01981,,,,,Europe/London,0
WHD,WHMDSTD,West Hampstead,2,51.54747,-0.19118,,,,,Europe/London,0
WHE,WHALLEY,Whalley,0,53.82402,-2.41225,,,,,Europe/London,0
WHG,WSTHOTN,Westhoughton,0,53.55567,-2.52373,,,,,Europe/London,0
WHI,WHSTBLE,Whitstable,1,51.35758,1.03329,,,,,Europe/London,0
WHK,WTCMTLK,WYTHNSHW TC MTLK,0,0,0,,,,,Europe/London,0
WHL,WHHRTLA,White Hart Lane,0,51.60504,-0.07091,,,,,Europe/London,0
WHM,WHIMPLE,Whimple,0,50.76803,-3.35432,,,,,Europe/London,0
WHN,WHISTON,Whiston,0,53.41387,-2.79643,,,,,Europe/London,0
WHP,WHMPSTM,West Hampstead Thameslink,2,51.54848,-0.19184,,,,,Europe/London,0
WHR,WHORNDN,West Horndon,0,51.56795,0.34064,,,,,Europe/London,0
WHS,WHYTBUS,Whyteleafe South,9,51.30339,-0.07692,,,,,Europe/London,0
WHT,WHCH,Whitchurch (Cardiff),0,51.52075,-3.22325,,,,,Europe/London,0
WHX,WCHAPXR,WHITECHAPEL MTR,9,0,0,,,,,Europe/London,0
WHY,WHYTELF,Whyteleafe,1,51.30996,-0.08115,,,,,Europe/London,0
WIC,WIKFORD,Wickford,1,51.61502,0.51919,,,,,Europe/London,0
WID,WIDNES,Widnes,1,53.3785,-2.73354,,,,,Europe/London,0
WIH,WNMHILL,Winchmore Hill,0,51.63394,-0.1009,,,,,Europe/London,0
WIJ,WLSD,Willesden Junction,9,51.5325,-0.24455,,,,,Europe/London,0
WIL,WLNTNON,Willington,0,52.85364,-1.56336,,,,,Europe/London,0
WIM,WDNLUL,Wimbledon,9,51.42122,-0.20637,,,,,Europe/London,0
WIN,WNCHSTR,Winchester,2,51.06721,-1.3197,,,,,Europe/London,0
WIR,CATZ007,WIRKSWORTH,0,0,0,,,,,Europe/London,0
WIS,WISBBUS,WISBECH (COACH),0,0,0,,,,,Europe/London,0
WIV,WIVENHO,Wivenhoe,1,51.85653,0.95614,,,,,Europe/London,0
WKB,WKILBRD,West Kilbride,0,55.69616,-4.85175,,,,,Europe/London,0
WKD,WALKDEN,Walkden,0,53.51978,-2.39632,,,,,Europe/London,0
WKF,WKFLDWG,Wakefield Westgate,2,53.68307,-1.50611,,,,,Europe/London,0
WKG,WKNT,Workington,1,54.6451,-3.5585,,,,,Europe/London,0
WKI,WKIRBY,West Kirby,0,53.37317,-3.18377,,,,,Europe/London,0
WKK,WKFLDKG,Wakefield Kirkgate,1,53.67866,-1.48857,,,,,Europe/London,0
WKL,WKLW,WICKLOW     (CIE,0,0,0,,,,,Europe/Dublin,0
WKM,WOKNGHM,Wokingham,2,51.41122,-0.84254,,,,,Europe/London,0
WLA,CATZWLA,WOODLAWN    (CIE,0,0,0,,,,,Europe/Dublin,0
WLC,WALHAMX,Waltham Cross,1,51.68506,-0.02656,,,,,Europe/London,0
WLD,WSLE,West St Leonards,0,50.85315,0.53994,,,,,Europe/London,0
WLE,WHTLSEA,Whittlesea,0,52.54953,-0.11899,,,,,Europe/London,0
WLF,WTLESFD,Whittlesford Parkway,0,52.10359,0.16562,,,,,Europe/London,0
WLG,WALAGRD,Wallasey Grove Road,0,53.428,-3.06971,,,,,Europe/London,0
WLI,WELLING,Welling,0,51.4648,0.10169,,,,,Europe/London,0
WLM,WMWD,Williamwood,0,55.79369,-4.29033,,,,,Europe/London,0
WLN,WELNGTN,Wellington (Shropshire),1,52.70131,-2.51717,,,,,Europe/London,0
WLO,WLOO,Waterloo (Merseyside),0,53.47495,-3.02554,,,,,Europe/London,0
WLP,WELSHPL,Welshpool,1,52.65749,-3.13987,,,,,Europe/London,0
WLS,WOLSTON,Woolston,2,50.89892,-1.37706,,,,,Europe/London,0
WLT,WALNGTN,Wallington,0,51.36039,-0.15083,,,,,Europe/London,0
WLV,WALASYV,Wallasey Village,0,53.42288,-3.06913,,,,,Europe/London,0
WLW,WLWYNN,Welwyn North,0,51.8235,-0.19209,,,,,Europe/London,0
WLY,WOODLEY,Woodley,1,53.42925,-2.09327,,,,,Europe/London,0
WMA,WMALING,West Malling,1,51.29202,0.41865,,,,,Europe/London,0
WMB,WMBY,Wembley Central,2,51.55233,-0.29643,,,,,Europe/London,0
WMC,WILMCOT,Wilmcote,1,52.223,-1.75601,,,,,Europe/London,0
WMD,WYMNDHM,Wymondham,1,52.56541,1.11803,,,,,Europe/London,0
WME,WDMNSTR,Woodmansterne,0,51.31902,-0.15426,,,,,Europe/London,0
WMG,WELHAMG,Welham Green,0,51.73635,-0.21069,,,,,Europe/London,0
WMI,WLDMILL,Wildmill,0,51.52087,-3.57963,,,,,Europe/London,0
WML,WLMSL,Wilmslow,2,53.32685,-2.22633,,,,,Europe/London,0
WMM,MNCRWML,WITHINGTON MTLK,0,0,0,,,,,Europe/London,0
WMN,WRMNSTR,Warminster,2,51.20678,-2.17673,,,,,Europe/London,0
WMR,WDNYMNR,Widney Manor,0,52.39594,-1.77437,,,,,Europe/London,0
WMS,WEMYSSB,Wemyss Bay,1,55.87614,-4.88908,,,,,Europe/London,0
WMT,MNCRWST,WEASTE MTLK,1,0,0,,,,,Europe/London,0
WMW,WLTHQRD,Walthamstow Queens Road,1,51.5815,-0.02385,,,,,Europe/London,0
WNC,WINDSEC,Windsor & Eton Central,2,51.48327,-0.61038,,,,,Europe/London,0
WND,WENDOVR,Wendover,0,51.76176,-0.74737,,,,,Europe/London,0
WNE,WILNECT,Wilnecote (Staffs),0,52.61071,-1.67971,,,,,Europe/London,0
WNF,WNCFILD,Winchfield,0,51.28495,-0.90698,,,,,Europe/London,0
WNG,WAUNGRN,Waun-gron Park,0,51.4882,-3.22965,,,,,Europe/London,0
WNH,WARNHAM,Warnham,0,51.0929,-0.32946,,,,,Europe/London,0
WNI,WINCNEW,Winchelsea - New Inn,1,50.92585,0.71342,,,,,Europe/London,0
WNL,WHINH,Whinhill,0,55.93837,-4.74669,,,,,Europe/London,0
WNM,WMILTON,Weston Milton,0,51.34847,-2.94239,,,,,Europe/London,0
WNN,WENNGTN,Wennington,0,54.1237,-2.58751,,,,,Europe/London,0
WNP,WNSTDPK,Wanstead Park,1,51.55169,0.02621,,,,,Europe/London,0
WNR,WSORAER,Windsor & Eton Riverside,2,51.48565,-0.60653,,,,,Europe/London,0
WNS,WINERSH,Winnersh,0,51.43028,-0.87686,,,,,Europe/London,0
WNT,WDWTOWN,Wandsworth Town,0,51.46105,-0.18813,,,,,Europe/London,0
WNW,WNORWOD,West Norwood,2,51.43175,-0.10383,,,,,Europe/London,0
WNY,WNOTLEY,White Notley,0,51.83891,0.59586,,,,,Europe/London,0
WOB,WOBURNS,Woburn Sands,0,52.01815,-0.65408,,,,,Europe/London,0
WOF,WORCSFS,Worcester Foregate Street,2,52.19514,-2.2216,,,,,Europe/London,0
WOH,WLDNGHM,Woldingham,0,51.29016,-0.05187,,,,,Europe/London,0
WOK,WOKING,Woking,2,51.31847,-0.55696,,,,,Europe/London,0
WOL,WLVR,Wolverton,0,52.06588,-0.80427,,,,,Europe/London,0
WOM,WOMBWEL,Wombwell,0,53.51735,-1.41616,,,,,Europe/London,0
WON,WONNAZE,Walton-on-the-Naze,1,51.84617,1.26767,,,,,Europe/London,0
WOO,WOOL,Wool,1,50.68164,-2.22146,,,,,Europe/London,0
WOP,WORCPWY,WORCESTERSHIRE PARKWAY,1,0,0,,,,,Europe/London,0
WOR,WORLE,Worle,0,51.35804,-2.90962,,,,,Europe/London,0
WOS,WORCSSH,Worcester Shrub Hill,2,52.19473,-2.20941,,,,,Europe/London,0
WPE,WAPPING,Wapping,0,51.50439,-0.05593,,,,,Europe/London,0
WPL,WRPLSDN,Worplesdon,0,51.28902,-0.58258,,,,,Europe/London,0
WPM,WSPMTLK,WYTHNSHW PK MTLK,0,0,0,,,,,Europe/London,0
WPT,CATZWPT,WESTPORT    (CIE,0,0,0,,,,,Europe/Dublin,0
WRB,WRABNES,Wrabness,0,51.93951,1.1715,,,,,Europe/London,0
WRE,WRENBRY,Wrenbury,0,53.01939,-2.59595,,,,,Europe/London,0
WRH,WORTHNG,Worthing,2,50.8185,-0.37617,,,,,Europe/London,0
WRK,WORKSOP,Worksop,2,53.31151,-1.12277,,,,,Europe/London,0
WRL,WETHERL,Wetheral,0,54.88384,-2.83171,,,,,Europe/London,0
WRM,WARHAM,Wareham,1,50.69289,-2.11525,,,,,Europe/London,0
WRN,WRUNTON,West Runton,0,52.93553,1.24546,,,,,Europe/London,0
WRP,WARWPWY,Warwick Parkway,1,52.2861,-1.61206,,,,,Europe/London,0
WRS,WRESSLE,Wressle,0,53.77292,-0.92435,,,,,Europe/London,0
WRT,WORSTED,Worstead,0,52.77743,1.40408,,,,,Europe/London,0
WRU,WRUISLP,West Ruislip,2,51.56976,-0.43777,,,,,Europe/London,0
WRW,WARWICK,Warwick,1,52.28654,-1.58185,,,,,Europe/London,0
WRX,WREXGUB,Wrexham General,9,53.05023,-3.00244,,,,,Europe/London,0
WRY,WRYSBRY,Wraysbury,0,51.45771,-0.54192,,,,,Europe/London,0
WSA,WALERTN,West Allerton,0,53.36912,-2.90696,,,,,Europe/London,0
WSB,FRWDJN,Westbury (Wilts),9,51.26699,-2.19918,,,,,Europe/London,0
WSE,WINCHLS,Winchelsea,0,50.93377,0.70226,,,,,Europe/London,0
WSF,WNSFD,Winsford,0,53.19051,-2.4946,,,,,Europe/London,0
WSH,WISHAW,Wishaw,1,55.77204,-3.92642,,,,,Europe/London,0
WSL,WALSALL,Walsall,1,52.5844,-1.98475,,,,,Europe/London,0
WSM,WSMARE,Weston-super-Mare,2,51.34432,-2.97166,,,,,Europe/London,0
WSR,WMOR,Woodsmoor,0,53.38647,-2.14209,,,,,Europe/London,0
WST,WDST,Wood Street,0,51.58658,-0.00241,,,,,Europe/London,0
WSU,WSUTTON,West Sutton,0,51.36585,-0.20517,,,,,Europe/London,0
WSW,WANDCMN,Wandsworth Common,0,51.44618,-0.16339,,,,,Europe/London,0
WTA,WHAILES,Wester Hailes,0,55.91432,-3.28434,,,,,Europe/London,0
WTB,WTBY,Whitby,0,54.48461,-0.6154,,,,,Europe/London,0
WTC,WCHR,Whitchurch (Shrops),0,52.96806,-2.6717,,,,,Europe/London,0
WTE,WHLE,Whitlocks End,1,52.39183,-1.85154,,,,,Europe/London,0
WTF,WHFD,WHITEFIELD MTLK,1,0,0,,,,,Europe/London,0
WTG,WATLGTN,Watlington,0,52.67317,0.38332,,,,,Europe/London,0
WTH,WHITHVN,Whitehaven,1,54.55303,-3.58693,,,,,Europe/London,0
WTI,WINETGL,Winnersh Triangle,0,51.43674,-0.89133,,,,,Europe/London,0
WTL,WHLAND,Whitland,1,51.81803,-4.61439,,,,,Europe/London,0
WTM,WITHAME,Witham (Essex),2,51.80597,0.63913,,,,,Europe/London,0
WTN,WHTTON,Whitton,0,51.44961,-0.35768,,,,,Europe/London,0
WTO,WTRORTN,Water Orton,1,52.51859,-1.74309,,,,,Europe/London,0
WTR,WTRNGBY,Wateringbury,0,51.24974,0.42247,,,,,Europe/London,0
WTS,WATSTND,Whatstandwell,0,53.08331,-1.50409,,,,,Europe/London,0
WTT,WITTON,Witton (West Midlands),0,52.51238,-1.88443,,,,,Europe/London,0
WTW,COWESW,COWES WEST RDJET,0,0,0,,,,,Europe/London,0
WTY,WITLEY,Witley,0,51.13316,-0.64578,,,,,Europe/London,0
WTZ,YORKWHT,WHITBY BUS,0,0,0,,,,,Europe/London,0
WVF,KEYMERJ,Wivelsfield,9,50.9643,-0.12079,,,,,Europe/London,0
WVH,PBLJWM,Wolverhampton,9,52.58784,-2.11951,,,,,Europe/London,0
WWA,WOLWCHA,Woolwich Arsenal,1,51.48991,0.06919,,,,,Europe/London,0
WWC,WOLWXR,WOOLWICH CROSSRAIL,1,0,0,,,,,Europe/London,0
WWD,WOLWCDY,Woolwich Dockyard,0,51.49113,0.05464,,,,,Europe/London,0
WWI,WWICKHM,West Wickham,0,51.3813,-0.01443,,,,,Europe/London,0
WWL,WHWLL,Whitwell (Derbys),0,53.27996,-1.20021,,,,,Europe/London,0
WWM,MNCRWWM,WESTWOOD MTLK,0,0,0,,,,,Europe/London,0
WWO,WWRTHNG,West Worthing,0,50.81835,-0.39299,,,,,Europe/London,0
WWR,WNDSWRD,Wandsworth Road,0,51.47022,-0.13852,,,,,Europe/London,0
WWW,WOTONWN,Wootton Wawen,0,52.2669,-1.7847,,,,,Europe/London,0
WXC,WREXHMC,Wrexham Central,0,53.04619,-2.99905,,,,,Europe/London,0
WXF,WEXFDOH,WEXFORD     (CIE,0,0,0,,,,,Europe/Dublin,0
WYB,WEYBDGB,Weybridge,2,51.36177,-0.45774,,,,,Europe/London,0
WYE,WYEE,Wye,0,51.18501,0.9293,,,,,Europe/London,0
WYL,WYGN,Wylde Green,0,52.54571,-1.83141,,,,,Europe/London,0
WYM,WYLAM,Wylam,0,54.97497,-1.81406,,,,,Europe/London,0
WYT,WYTH,Wythall,0,52.37994,-1.86553,,,,,Europe/London,0
XAA,BRWCGAL,GALASHIELS V BWK,0,0,0,,,,,Europe/London,0
XAE,ABNGHST,ABINGDON DID BUS,0,0,0,,,,,Europe/London,0
XAF,AVEBRED,AVEBURY BUS,0,0,0,,,,,Europe/London,0
XAG,CATZ,ARDRAHAN    (CIE,0,0,0,,,,,Europe/Dublin,0
XAH,CALLNRD,CALLINGTON BUS,0,0,0,,,,,Europe/London,0
XAI,CALNSTR,CALNE BUS,0,0,0,,,,,Europe/London,0
XAO,CORSNEW,CORSHAM BUS,0,0,0,,,,,Europe/London,0
XAP,DRTMPON,DARTMOUTH BUS,0,0,0,,,,,Europe/London,0
XAQ,DEVIZES,DEVIZES BUS,0,0,0,,,,,Europe/London,0
XAS,FOWESHT,FOWEY BUS,0,0,0,,,,,Europe/London,0
XAV,HLSTCOI,HELSTON BUS,9,0,0,,,,,Europe/London,0
XAW,KNGBQUY,KINGSBRIDGE BUS,0,0,0,,,,,Europe/London,0
XBD,LYNECMP,LYNEHAM BUS,0,0,0,,,,,Europe/London,0
XBH,MARBORO,MARLBORO SWI BUS,9,0,0,,,,,Europe/London,0
XBR,MIDSTHL,MIDSOMER NTN BUS,0,0,0,,,,,Europe/London,0
XBW,MINEBAN,MINEHEAD BUS,0,0,0,,,,,Europe/London,0
XCD,CATZ001,CRAUGHWELL  (CIE,0,0,0,,,,,Europe/Dublin,0
XCF,CRDFAIR,CARDIFF AIR BUS,0,0,0,,,,,Europe/London,0
XCG,OKHMGOP,OKEHAMPTON BUS,0,0,0,,,,,Europe/London,0
XCL,PERRBCH,PERRANPORTH BUS,0,0,0,,,,,Europe/London,0
XCQ,CHNRLOW,CHINNOR BUS,0,0,0,,,,,Europe/London,0
XCU,STETLEI,STREET BUS,0,0,0,,,,,Europe/London,0
XCV,TVSTBUS,TAVISTOCK BUS,0,0,0,,,,,Europe/London,0
XDA,TIVIBUS,TIVERTON BUS,0,0,0,,,,,Europe/London,0
XDC,WANTMPL,WANTAGE BUS,0,0,0,,,,,Europe/London,0
XDH,WLLSPRI,WELLS BRI BUS,0,0,0,,,,,Europe/London,0
XDI,WTNBHST,ROYALWTNBASS BUS,0,0,0,,,,,Europe/London,0
XDJ,PLYMSAL,PLYMOUTH SALT RD,1,0,0,,,,,Europe/London,0
XDK,SDONBUS,SWINDON BUS STN,1,0,0,,,,,Europe/London,0
XDN,CHIPNEW,CHIPPENHAM NEW RD,1,0,0,,,,,Europe/London,0
XDO,BATHBUS,BATH BUS STATION,1,0,0,,,,,Europe/London,0
XDP,TOTNSTA,TOTNES STN ROAD,1,0,0,,,,,Europe/London,0
XDR,PARRSTA,PAR STN BUS STOP,1,0,0,,,,,Europe/London,0
XDU,BRSTSTA,BRISTOL T M BUS,1,0,0,,,,,Europe/London,0
XDX,CULLMKH,CULLOMPTON BUS,0,0,0,,,,,Europe/London,0
XDY,DNSRSTP,DUNSTER BUS,0,0,0,,,,,Europe/London,0
XEA,GLSTHAL,GLASTONBURY BUS,0,0,0,,,,,Europe/London,0
XEE,HOLSCAT,HOLSWORTHY BUS,9,0,0,,,,,Europe/London,0
XEF,MEVATRE,MEVAGISSEY BUS,0,0,0,,,,,Europe/London,0
XEQ,RADSVHL,RADSTOCK BUS,0,0,0,,,,,Europe/London,0
XET,NUTFBUS,NUTFIELD MEMORIAL HALL,1,0,0,,,,,Europe/London,0
XFI,EMPKAR2,EAST M AIR/NOT,0,0,0,,,,,Europe/London,0
XFJ,STAUEDE,EDEN PROJECT BUS,0,0,0,,,,,Europe/London,0
XFP,CATZ011,BLENHEIM PAL. VIA OXFORD P,0,0,0,,,,,Europe/London,0
XGR,CATZ003,GORT        (CIE,0,0,0,,,,,Europe/Dublin,0
XGV,CATZ002,GLOUNTHAUNE (CIE,0,0,0,,,,,Europe/Dublin,0
XID,CATZ008,IDRIDGEHAY,0,0,0,,,,,Europe/London,0
XKW,YSTRBWD,BLACKWOOD BUS LINC,0,0,0,,,,,Europe/London,0
XLB,HSFTLBD,LEEDS BRD AIRBUS,0,0,0,,,,,Europe/London,0
XLD,LEEDSFB,LEEDS FEST BUS,0,0,0,,,,,Europe/London,0
XLO,LOGHUNI,LOUGHBRO UNI BUS,0,0,0,,,,,Europe/London,0
XME,CATZ004,MIDLETON    (CIE,0,0,0,,,,,Europe/Dublin,0
XMT,DRTMTH,DARTMOUTH,0,0,0,,,,,Europe/London,0
XMV,CATZ005,MONASTEREVIN(CIE,0,0,0,,,,,Europe/Dublin,0
XNA,ALTRMET,ALTRINCHAM MTLK,1,0,0,,,,,Europe/London,0
XNE,BHAMNEC,COLES BUS NECBIA,0,0,0,,,,,Europe/London,0
XOF,GOFER,GOSPORT FERRY,0,0,0,,,,,Europe/London,0
XPB,BRSTAIR,BRISTOL AIR BUS,0,0,0,,,,,Europe/London,0
XPX,CATZXPX,ST AGNES BUS,0,0,0,,,,,Europe/London,0
XRD,RYDEHOV,RYDE HOVERPORT,1,0,0,,,,,Europe/London,0
XRM,MNCRRSM,RCHDLE STN MTLK,0,0,0,,,,,Europe/London,0
XSB,CATZ006,SIXMILEBRDGE(CIE,0,0,0,,,,,Europe/Dublin,0
XSO,IPSWSWD,SOUTHWOLD BUS,0,0,0,,,,,Europe/London,0
XTH,STANBUS,STANSTED AIR BUS,0,0,0,,,,,Europe/London,0
XVE,OXFDWBU,OXFORD WESTGATE,0,0,0,,,,,Europe/London,0
XYX,ALFREMD,EASTMID DESIGNER,0,0,0,,,,,Europe/London,0
YAE,YATE,Yate,0,51.5406,-2.43252,,,,,Europe/London,0
YAL,YALDING,Yalding,0,51.22648,0.41216,,,,,Europe/London,0
YAT,YATTON,Yatton,0,51.39101,-2.82778,,,,,Europe/London,0
YEO,YEOFORD,Yeoford,0,50.77692,-3.72712,,,,,Europe/London,0
YET,YTMNSTR,Yetminster,0,50.89576,-2.57376,,,,,Europe/London,0
YMH,YMTHIOW,YARMOUTH IOW,0,0,0,,,,,Europe/London,0
YNW,YNYSWEN,Ynyswen,0,51.66497,-3.5216,,,,,Europe/London,0
YOK,YOKER,Yoker,0,55.89259,-4.38629,,,,,Europe/London,0
YRD,YRDLYWD,Yardley Wood,0,52.4215,-1.85438,,,,,Europe/London,0
YRK,YORK,York,3,53.95797,-1.09318,,,,,Europe/London,0
YRM,YAAM,Yarm,0,54.4939,-1.35155,,,,,Europe/London,0
YRT,YORTON,Yorton,0,52.80896,-2.73646,,,,,Europe/London,0
YSM,YSTRADM,Ystrad Mynach,1,51.64093,-3.2413,,,,,Europe/London,0
YSR,YTRHOND,Ystrad Rhondda,0,51.64364,-3.46668,,,,,Europe/London,0
YVJ,YOVIJDP,Yeovil Junction,9,50.92475,-2.61246,,,,,Europe/London,0
YVP,YOVILPM,Yeovil Pen Mill,2,50.94453,-2.61343,,,,,Europe/London,0
ZAE,ALDGEST,ALDGATE EAST UND,1,0,0,,,,,Europe/London,0
ZBS,LONDNBS,BAKER STREET UND,1,0,0,,,,,Europe/London,0
ZCK,CCKFLUL,COCKFOSTERS UND,1,0,0,,,,,Europe/London,0
ZCM,CHSM,CHESHAM UND,1,0,0,,,,,Europe/London,0
ZCO,CRXLEY,CROXLEY UND,1,0,0,,,,,Europe/London,0
ZCW,CNDAW,Canada Water,1,51.49799,-0.04972,,,,,Europe/London,0
ZDB,DPTFBD,DEPTFORD BRIDGE DLR,1,0,0,,,,,Europe/London,0
ZEH,EASTHAM,EAST HAM UND,1,0,0,,,,,Europe/London,0
ZEK,EMBKMNT,EMBANKMENT UND,0,0,0,,,,,Europe/London,0
ZEO,BRMNDSY,BERMONDSEY LRT,1,0,0,,,,,Europe/London,0
ZET,ELCT,EARLS COURT UND,1,0,0,,,,,Europe/London,0
ZFD,FRNDNLT,Farringdon,3,51.52017,-0.1052,,,,,Europe/London,0
ZFR,FNCHMET,FINCHLEY ROAD UND,1,0,0,,,,,Europe/London,0
ZHB,HIGBRNT,HIGH BARNET UND,1,0,0,,,,,Europe/London,0
ZHD,HLNDBUS,HILLINGDON UND,9,0,0,,,,,Europe/London,0
ZHJ,HTRWUND,HEATHROW UNDERGROUND,1,0,0,,,,,Europe/London,0
ZHR,HLWYRLT,HOLLOWAY RD UND,1,0,0,,,,,Europe/London,0
ZKX,CATEZKX,KINGS CROSS UND,3,0,0,,,,,Europe/London,0
ZLW,WCHAPEL,Whitechapel,1,51.51947,-0.05976,,,,,Europe/London,0
ZNA,NACTON,NORTH ACTON UNDERGROUND,1,0,0,,,,,Europe/London,0
ZND,CATZZND,NORTHWOOD UND,1,0,0,,,,,Europe/London,0
ZNP,ILFENBP,Newbury Park Station,2,51.57504,0.08968,,,,,Europe/London,0
ZOA,ENFCOAK,OAKWOOD UND,1,0,0,,,,,Europe/London,0
ZPA,CATZPAD,PADDINGTON UND,3,0,0,,,,,Europe/London,0
ZSM,STNMORE,STANMORE UND,2,0,0,,,,,Europe/London,0
ZSO,CATZZSO,SOUTHWARK LT,0,0,0,,,,,Europe/London,0
ZTG,TWGWDLR,TOWER GATEWY DLR,1,0,0,,,,,Europe/London,0
ZTL,HRNSTPL,TURNPIKE LANE UND,1,0,0,,,,,Europe/London,0
ZWT,WATFLUL,WATFORD MET UND,1,0,0,,,,,Europe/London,0
ZWY,CATEZWY,WEMBLEY PARK UND,1,0,0,,,,,Europe/London,0
